id,temp,dwpt,rhum,prcp,pres,prediction_suitable,location,region,name,latitude,longitude
10004,4.981220125636645,5.196373293443913,9.59334919317762,0.235318719254066,11.151602282793274,1,"(54.1667, 6.35, 0)",HH,UFS TW Ems,54.1667,6.35
10007,5.154724219270741,5.288078488274658,9.580469782454651,0.3295298762659198,10.939159830924666,1,"(54.1833, 7.4333, 0)",HH,UFS Deutsche Bucht.,54.1833,7.4333
10015,5.556034955134517,5.470657622556437,10.540065234286985,0.510561367345321,10.884105608363525,1,"(54.1833, 7.9, 4)",SH,Helgoland,54.1833,7.9
10018,6.047453555140078,5.293727722753989,12.864473354236786,0.2800024089413119,11.001274232498329,1,"(54.9167, 8.35, 16)",SH,Westerland / Sylt,54.9167,8.35
10020,6.223731864542269,5.514511478153803,13.248548205949458,0.3959655166700668,11.076822581990264,1,"(55.0167, 8.4167, 26)",SH,List / Sylt,55.0167,8.4167
10022,6.622492778386724,5.567995373890324,14.85404897125723,0.4625927906780483,10.86020879339956,1,"(54.8, 8.95, 7)",SH,Leck,54.8,8.95
10026,6.317278107999458,5.329260385935776,13.631996721176794,0.3027328198561853,10.699982160108412,1,"(54.5167, 9.15, 28)",SH,Husum,54.5167,9.15
10028,6.534259296617057,5.556741702455054,13.664880717494112,0.4366879177663182,10.782026328093092,1,"(54.3297, 8.6028, 5)",SH,St Peter Ording  / St. Peter-ording / Bad Sankt Peter,54.3297,8.6028
10033,6.501499814550209,5.721822200155531,14.606937051481433,0.2971834635671595,10.779683210748807,1,"(54.8333, 9.5, 27)",SH,Gluecksburg / Meierwik,54.8333,9.5
10034,6.322219757608572,5.282953998029592,13.387978464750905,0.460479541552367,10.750109350585973,1,"(54.6333, 9.35, 20)",SH,Eggebek,54.6333,9.35
10035,6.754148371023923,5.710557069378513,15.841675750056902,0.4924304860762324,10.658776312652892,1,"(54.5333, 9.55, 43)",SH,Schleswig,54.5333,9.55
10037,6.860748826673087,5.789967250434636,15.671003660866038,0.2318182814284517,10.633970159802132,1,"(54.4667, 9.5167, 22)",SH,Schleswig-Jagel,54.4667,9.5167
10038,6.985599447038425,5.832274595074287,15.974151227378012,0.2974589781266309,10.593534969801093,1,"(54.3167, 9.5333, 12)",SH,Hohn,54.3167,9.5333
10042,6.253561201390376,5.78888198255293,12.221468458081857,0.4047941411719685,10.641752905802615,1,"(54.6667, 10.0333, 4)",SH,Olpenitz,54.6667,10.0333
10044,5.908788962984012,5.500428724812989,11.064200706327227,0.258415849936985,10.584000132081398,1,"(54.5, 10.2833, 5)",SH,Leuchtturm Kiel,54.5,10.2833
10046,6.6964627205748135,5.70692118176429,14.862621988909996,0.3581657396095788,10.537027531756715,1,"(54.3833, 10.15, 31)",SH,Kiel / Holtenau,54.3833,10.15
10055,6.423217874521098,5.808299011739648,11.873641904383623,0.3316587336191518,10.460000533557302,1,"(54.5333, 11.0667, 3)",SH,Westermarkelsdorf,54.5333,11.0667
10063,6.083409357915428,5.426784091016407,10.182400511432188,0.2119779321688595,10.416052126454174,1,"(54.5, 11.2167, 3)",SH,Puttgarden,54.5,11.2167
10091,6.471596292909971,6.058213504710817,12.078539908676522,0.3978668036174929,10.181757562312749,1,"(54.6833, 13.4333, 42)",MV,Arkona,54.6833,13.4333
10093,7.044109827855468,6.040998369356165,14.686977735236868,0.3567894388346823,10.062081067636123,1,"(54.3667, 13.4833, 40)",MV,Putbus,54.3667,13.4833
10097,6.768173422707872,6.216076843063708,11.33734556001098,0.3098461815818316,10.00326440985184,1,"(54.2458, 13.9125, 12)",MV,Greifswalder Oie,54.2458,13.9125
10113,6.121312903527148,5.564695765549756,12.113359178066906,0.4200308298946109,10.841716798272818,1,"(53.7167, 7.15, 11)",NI,Norderney,53.7167,7.15
10122,6.423667189393647,5.372482620235682,11.980143990148589,0.1693554188102269,10.688659493999808,1,"(53.5333, 7.8833, 7)",NI,Jever,53.5333,7.8833
10124,5.606578557465343,5.36389394335204,10.33391008879523,0.334993665729455,10.784533369025338,1,"(53.8667, 8.1333, 30)",NI,Leuchtturm Alte Weser,53.8667,8.1333
10125,6.5585206068287984,5.340856279384971,13.907965001223664,0.2449898972785968,10.564401290668908,1,"(53.5, 8.05, 5)",NI,Wilhelmshaven-Mariensiel,53.5,8.05
10126,6.812171582312632,5.664744113179204,15.818237646932277,0.2402337489099922,10.685188290357862,1,"(53.55, 7.6667, 8)",NI,Wittmundhaven,53.55,7.6667
10129,6.843229299312519,5.829934811955009,15.10022187500823,0.3910855847614554,10.475153516948524,1,"(53.5333, 8.5833, 7)",HB,Bremerhaven,53.5333,8.5833
10130,6.790214374051538,5.7014335193734285,14.855727066087924,0.4155699799326045,10.600951268408032,1,"(54.0667, 9.0167, 3)",SH,Elpersbuettel,54.0667,9.0167
10131,6.484876188697434,5.741478673104135,12.924989334511045,0.3958423685189836,10.596324089861133,1,"(53.8667, 8.7, 5)",NI,Cuxhaven,53.8667,8.7
10136,6.91137610009603,5.789263666585023,15.95327380736319,0.2456528487510767,10.58130364276691,1,"(53.7667, 8.6667, 23)",NI,Nordholz,53.7667,8.6667
10139,7.1384815392123,5.8768752835365055,16.875285508283685,0.4172535475914379,10.264817670888185,1,"(53.5, 9.1667, 3)",NI,Bremervoerde,53.5,9.1667
10142,7.141525986421995,5.826139755109078,16.596748937931515,0.4274349927813546,10.47970892783561,0,"(54.0, 9.5833, 25)",SH,Itzehoe,54.0,9.5833
10143,6.750939362634023,5.428075730724329,14.763197564892598,0.2950053663855719,10.411895271261717,1,"(54.0803, 9.9417, 22)",SH,Neumunster / Neumuenster / Neumünster,54.0803,9.9417
10146,7.24932613823906,5.925004246117055,16.94932801956168,0.5621190232830644,10.337223696746536,0,"(53.7333, 9.8833, 13)",SH,Quickborn,53.7333,9.8833
10147,7.29039532263354,5.835967653463074,17.035608650181914,0.4543551686191128,10.295161858400034,1,"(53.6333, 10.0, 16)",HH,Hamburg Airport,53.6333,10.0
10149,7.355221942875949,5.888817132801028,17.35516408189065,0.0,10.285423409646544,1,"(53.5333, 9.8333, 5)",HH,Hamburg / Finkenwerder,53.5333,9.8333
10150,6.982277890034276,5.789924136022767,15.63154293385043,0.3582938320481471,10.426102906654805,1,"(54.1667, 10.3539, 26)",SH,Dornick / Karpe,54.1667,10.3539
10152,6.595357357202059,5.906259442986028,13.34016317194089,0.4415732636376072,10.320704573824193,1,"(54.0833, 10.8833, 1)",SH,Pelzerhaken,54.0833,10.8833
10156,7.385944343855307,5.96383251140613,17.274630457696734,0.4074468146003311,10.255690147755985,0,"(53.8167, 10.7, 14)",SH,Luebeck-Blankensee,53.8167,10.7
10161,6.712760147554894,5.976924910986622,13.238350098438266,0.4780314740554689,10.260683310686169,1,"(54.0, 11.2, 15)",MV,Boltenhagen,54.0,11.2
10162,7.502058333657491,5.987343689686164,17.53593581892226,0.4475925416075601,10.101558390757724,1,"(53.65, 11.3833, 59)",MV,Schwerin,53.65,11.3833
10168,7.671164622769601,6.01258279642836,17.42482288989493,0.3944434094219365,9.988230300768898,0,"(53.6, 12.1, 58)",MV,Goldberg,53.6,12.1
10170,6.851856076860183,6.003052098596347,13.949343163521492,0.4035697895115824,10.186753232784232,1,"(54.1833, 12.0833, 4)",MV,Rostock / Warnemünde,54.1833,12.0833
10172,7.486188933718663,6.037695523640942,17.157093744132197,0.2380346622734561,10.068505867823642,1,"(53.9167, 12.2833, 40)",MV,Laage,53.9167,12.2833
10177,7.611067890704746,5.994259472511475,17.09332056855709,0.3969282281984927,9.94804679157741,0,"(53.7667, 12.6167, 46)",MV,Teterow,53.7667,12.6167
10180,7.170857628993723,6.097575079338144,14.64684445205793,0.4366367777907358,10.148713523975182,1,"(54.3333, 12.7167, 7)",MV,Barth,54.3333,12.7167
10181,6.619931267871601,5.618203497229458,12.915297702170758,0.2245899141264118,10.078996721295658,1,"(54.3667, 13.0833, 4)",MV,Parow,54.3667,13.0833
10184,7.260859091187455,6.195858120049189,15.463766316580184,0.3465106106592766,9.999908691638698,1,"(54.1, 13.4, 2)",MV,Greifswald,54.1,13.4
10192,8.148503004234886,6.233626073163946,18.52178383383843,0.0,9.701056286788152,1,"(53.8833, 14.15, 22)",MV,Heringsdorf,53.8833,14.15
10193,7.554163515680716,6.364134852505593,15.80811407537243,0.3340101066961536,9.815570041024577,1,"(53.75, 14.0667, 1)",MV,Ueckermuende,53.75,14.0667
10200,6.79559616580315,5.693870037754263,15.294025958211376,0.4458853974919305,10.690293986144214,1,"(53.35, 7.2167, 5)",NI,Emden,53.35,7.2167
10203,6.540061117035137,5.348302664591324,12.738149478155265,0.2476888023205114,10.746265665373654,1,"(53.35, 7.2, 5)",NI,Emden / Hafen,53.35,7.2
10210,7.048322199240401,5.697818712876955,16.978158463253383,0.4408278113872368,10.33229082770748,1,"(5.7, 7.1, 0)",IM,Friesoythe-altenoythe,5.7,7.1
10215,6.8644373836291415,5.330063803034502,15.551859180954846,0.2219120592786606,10.451798917331374,1,"(53.1833, 8.1667, 11)",NI,Oldenburg,53.1833,8.1667
10218,7.025117522301044,5.3454532958032965,16.101365529750915,0.2193520779293721,10.337385345262676,1,"(52.8833, 8.2333, 56)",NI,Ahlhorn / Ostsiedlung Alhorn,52.8833,8.2333
10224,7.425286013791185,5.780737052552101,17.79268102186362,0.3502723210336511,10.296139739653906,1,"(53.05, 8.8, 3)",HB,Bremen,53.05,8.8
10234,7.060668035004067,5.449177081885529,16.231932766999577,0.2585225202383774,10.19670476744369,0,"(53.1333, 9.35, 61)",NI,Rotenburg / Rohtenburg / Luhne,53.1333,9.35
10235,7.575288648769645,5.818211804730939,18.938943440747884,0.4011021883981426,10.103235313712688,0,"(53.0, 9.8333, 77)",NI,Soltau,53.0,9.8333
10238,7.707228786845615,5.987985532932528,19.38830013837632,0.1865035641345627,9.930320269453675,0,"(52.8167, 9.9333, 70)",NI,Bergen,52.8167,9.9333
10246,7.914320803599273,5.957161750562713,19.676489996165344,0.1723770442964781,10.052790542098908,1,"(52.9167, 10.1833, 75)",NI,Fassberg,52.9167,10.1833
10249,7.640210661737719,5.887988536710276,18.4790166500661,0.3593767380810327,10.1117441489577,0,"(53.4, 10.6833, 45)",MV,Boizenburg,53.4,10.6833
10253,7.786466497592962,5.856548509993182,18.51799982412217,0.3257767655681797,9.94111129824861,0,"(52.9667, 11.1333, 17)",NI,Luechow,52.9667,11.1333
10261,8.117780455062142,5.9600781051605125,19.280131796540623,0.3812782994376154,9.831223138213264,0,"(52.9, 11.7333, 21)",ST,Seehausen,52.9,11.7333
10264,7.849974549915367,5.942868187443855,18.800106294017866,0.3847591765375294,9.935497132960313,0,"(53.3167, 11.9333, 81)",MV,Marnitz,53.3167,11.9333
10267,8.132377495692278,6.0565357087071545,19.149110121995587,0.4087558822112381,9.74153158352387,1,"(52.9333, 12.4167, 40)",BB,Kyritz,52.9333,12.4167
10268,7.7421096389174195,6.106533024507028,17.922782607427514,0.43402445958949,9.898872435748558,0,"(53.5167, 12.6667, 70)",MV,Waren,53.5167,12.6667
10270,7.779722865976177,6.027576285323262,17.08274705699411,0.3288330745260483,9.711222710203426,0,"(52.9, 12.8167, 38)",BB,Neuruppin,52.9,12.8167
10272,7.583002224831657,5.682014465187841,17.46648925604724,0.2118040975141544,9.801311519412756,0,"(53.2, 12.5167, 72)",BB,Wittstock,53.2,12.5167
10273,7.264418131253979,5.657441048370356,15.87300155549886,0.2299244407993126,9.904702574495737,1,"(53.7333, 12.9333, 53)",MV,Basepohl,53.7333,12.9333
10277,7.48227044484116,5.731840289538894,16.698727347874364,0.2694953398869479,9.714801606084125,0,"(53.15, 13.0333, 62)",BB,Neuglobsow,53.15,13.0333
10280,7.351368811159848,5.680019934563237,16.531945920047956,0.2057121367566953,9.850762738766097,0,"(53.55, 13.2, 81)",MV,Neubrandenburg,53.55,13.2
10281,7.723610536141746,6.1290722375035935,17.73021069080675,0.4051151409401549,9.881337201125366,1,"(53.6, 13.3167, 71)",MV,Trollenhagen,53.6,13.3167
10282,7.921857212130033,6.188206925552092,18.603762289602788,0.4015429716451581,9.754984636611002,1,"(53.3175, 13.4175, 115)",MV,Feldberg / Neuhof,53.3175,13.4175
10289,8.007848371081407,6.081020802869399,18.272824079728803,0.4011977215610134,9.725988068992129,1,"(53.3167, 13.9333, 55)",BB,Gruenow,53.3167,13.9333
10291,8.145646287162998,6.259630181662553,19.0036942573154,0.4141274932636438,9.61355146655886,1,"(53.0333, 14.0, 56)",BB,Angermuende,53.0333,14.0
10304,7.244458812544736,5.693679711786549,19.10390043444342,0.0,10.323909155627245,0,"(52.7167, 7.3167, 21)",NI,Meppen,52.7167,7.3167
10305,7.445222127728312,5.672038121713359,18.788707758836427,0.3830880049161737,10.337497462379933,0,"(52.5167, 7.3, 24)",NI,Lingen,52.5167,7.3
10306,7.136453951581864,5.43046225124004,16.75345396561471,0.2528745932371991,10.320263498285971,1,"(52.3, 7.3833, 40)",NW,Rheine-Bentlage,52.3,7.3833
10309,7.354729574746364,5.6292439880429095,18.52006243215688,0.4923197104973361,10.233781329500143,1,"(52.0828, 6.9417, 46)",NW,Ahaus / Wessum,52.0828,6.9417
10312,7.387144640243982,5.747310533845676,17.838276602068998,0.4225831698380207,10.047272180703116,0,"(52.3183, 8.1706, 103)",NW,Munster / Klein Haltern,52.3183,8.1706
10314,7.164582612295935,5.430791898557713,16.874845602840587,0.2315089075890382,10.305410793551514,0,"(52.3333, 7.5333, 39)",NW,Hopsten,52.3333,7.5333
10315,7.583864339628648,5.7400825645431945,19.052354037643607,0.3762953584916526,10.13046802250231,0,"(52.1333, 7.7, 48)",NW,Muenster / Osnabrueck,52.1333,7.7
10317,7.092981398258211,5.35467011939564,16.570246416186357,0.2568696345188948,10.198748035512551,0,"(52.25, 8.05, 95)",NI,Osnabrueck,52.25,8.05
10320,7.371249735472867,5.4213259439853285,17.19381201362813,0.2399042017065608,9.987563466111917,0,"(51.9167, 8.3, 72)",NW,Guetersloh,51.9167,8.3
10321,7.535919086746803,5.733446262438104,18.435858478132666,0.447037081380556,10.204761993365814,1,"(52.5833, 8.35, 39)",NI,Diepholz,52.5833,8.35
10325,7.463021564091009,5.88623931621927,17.428905435819928,0.433770712200295,9.980826313628391,0,"(52.1, 8.75, 135)",NW,Bad Salzuflen,52.1,8.75
10326,7.15524115513643,5.469146215850788,16.197077186015377,0.2561230894548568,10.02801578751768,0,"(51.9667, 8.55, 138)",NW,Bielefeld-Windelsbleiche,51.9667,8.55
10334,7.685116448132149,5.898511403053168,18.496236532287032,0.2276259797694428,10.041225346390174,1,"(52.45, 9.4333, 57)",NI,Wunstorf,52.45,9.4333
10335,7.525509167914369,5.817795007627801,17.47709115853487,0.182053389565558,10.05107081702488,1,"(52.2833, 9.0833, 70)",NI,Bueckeburg,52.2833,9.0833
10338,7.632107875495956,5.82088348634577,17.90545988318187,0.4212102954247917,9.9813421040949,1,"(52.4667, 9.6833, 56)",NI,Hannover,52.4667,9.6833
10343,7.84627595393546,5.907356048182606,19.42699405706827,0.1732151419603948,9.974952924227043,0,"(52.6, 10.0167, 39)",NI,Celle,52.6,10.0167
10348,7.599477733927417,5.920076024522153,17.591963133578634,0.4104455446374794,9.83633948479647,0,"(52.3, 10.45, 81)",NI,Braunschweig,52.3,10.45
10356,7.855974820721845,5.830213774714722,17.902029625570982,0.4019039136306579,9.703065241595237,1,"(52.1667, 11.1833, 162)",ST,Ummendorf,52.1667,11.1833
10359,8.188475579685687,5.944630615287997,20.106216768276884,0.3479196028833028,9.775235287165003,0,"(52.5167, 11.4, 47)",ST,Gardelegen,52.5167,11.4
10361,8.094807169368117,5.9764691450127465,18.7308066118566,0.4102581341242611,9.628349864224193,0,"(52.1333, 11.6, 79)",ST,Magdeburg,52.1333,11.6
10365,8.322368267739266,6.00560528180497,20.372016539940105,0.4434525636198065,9.636734321045424,0,"(52.3833, 12.1667, 35)",ST,Genthin,52.3833,12.1667
10368,8.212903316394796,6.083127482608328,19.85072472150932,0.4349023318477651,9.514940449552554,1,"(52.1167, 12.4667, 187)",BB,Wiesenburg,52.1167,12.4667
10371,0.5987866519432897,0.4824181513244218,1.5015143870590957,0.449000366436733,1.288762620077551,0,"(52.5806, 13.917, 80)",BB,Strausberg ,52.5806,13.917
10376,8.538091977413693,6.3361816479973925,19.90099504120375,0.3597498364535538,9.39343146351849,0,"(52.05, 13.5, 56)",BB,Baruth,52.05,13.5
10379,8.298435645783469,6.246996613789776,20.357918715720288,0.430052602349902,9.520941107617269,1,"(52.3833, 13.0667, 81)",BB,Potsdam,52.3833,13.0667
10381,8.083553737562735,6.286967730442738,20.2280301593399,0.4302328172302292,9.48123516179555,1,"(52.4667, 13.3, 51)",BE,Berlin / Dahlem,52.4667,13.3
10382,8.196972714442106,6.180949666957693,19.719772101448857,0.4210405621384291,9.540991521516348,1,"(52.5667, 13.3167, 37)",BE,Berlin / Tegel,52.5667,13.3167
10384,8.238393751527497,6.181649648017875,18.91471130147468,0.4281555021948078,9.513478791188756,1,"(52.4667, 13.4, 50)",BE,Berlin / Tempelhof,52.4667,13.4
10385,8.359606995290406,6.217255073897968,19.534082458623256,0.3875287653147256,9.470428259763738,1,"(52.3833, 13.5167, 47)",BB,Berlin / Schönefeld,52.3833,13.5167
10389,7.73412393567329,5.9306266186463175,17.851006946710857,0.190632574731745,9.514439250462054,1,"(52.5167, 13.4167, 37)",BE,Berlin / Alexanderplatz,52.5167,13.4167
10393,8.307501755774593,6.27458897709701,19.64724665522966,0.3990808955127469,9.353020107365436,0,"(52.2167, 14.1167, 98)",BB,Lindenberg,52.2167,14.1167
10396,8.406336515316315,6.276473537249761,19.209833881963952,0.3286426946896739,9.39416501954367,0,"(52.55, 14.55, 12)",BB,Manschnow,52.55,14.55
10400,7.533479722068261,5.682635000634873,18.46212565625464,0.4981455284693227,9.934247552192929,1,"(51.3, 6.7667, 45)",NW,Düsseldorf,51.3,6.7667
10401,7.074646070476014,5.181026084268531,16.040423136171302,0.2487756622574901,10.109080610948372,1,"(51.2, 6.1333, 73)",NRW,Brüggen,51.2,6.1333
10403,7.388765393973561,5.6855320126404685,18.32307321960673,0.2583848584206385,9.98920278806923,0,"(51.2333, 6.5, 37)",NW,Mönchengladbach,51.2333,6.5
10404,6.839713477846686,5.188154630367708,15.73885966600614,0.2733655043531849,10.212050056937075,0,"(51.7333, 6.2667, 31)",NW,Kalkar,51.7333,6.2667
10405,7.04355282021901,5.283333271710893,16.627051645362712,0.2629404048865725,10.194038066056232,0,"(51.6, 6.15, 32)",NW,Laarbruch,51.6,6.15
10406,6.935665440870172,5.2854722435132135,16.588613552597174,0.4154643120349186,10.26837682993989,0,"(51.8333, 6.5333, 21)",NW,Bocholt,51.8333,6.5333
10410,7.363627104981476,5.864864393269168,18.7409371284554,0.4540047148312796,9.945144602562252,0,"(51.4, 6.9667, 152)",NW,Essen,51.4,6.9667
10416,7.482783739279194,5.848607976160178,17.818669584184338,0.2933104457062356,9.90186293199961,1,"(51.5167, 7.6167, 127)",NW,Dortmund / Wickede,51.5167,7.6167
10418,7.520417892280002,5.811349923138136,19.3309160169914,0.439054664276294,9.804067620166716,0,"(51.25, 7.65, 387)",NW,Lüdenscheid,51.25,7.65
10424,7.461230965063817,5.776905361161218,17.331968937388435,0.4339610378886938,9.876757607403013,0,"(51.5778, 7.8889, 85)",NW,Werl / Sönnern,51.5778,7.8889
10426,7.505818854892325,5.832334044864908,18.4018757432706,0.2490270083450275,9.798644116227786,1,"(51.6167, 8.6167, 213)",NW,Paderborn / Lippstadt,51.6167,8.6167
10427,7.573602879124185,6.168703969305127,19.48779992993438,0.5340453554047431,9.626205519494254,1,"(51.1833, 8.4833, 839)",NW,Kahler Asten,51.1833,8.4833
10430,7.654270229447205,5.888081947455977,18.617224583838308,0.476757300197586,9.85667253430262,0,"(51.7833, 8.8333, 157)",NW,Bad Lippspringe,51.7833,8.8333
10432,7.813846329086673,5.974573057871846,17.321976993843506,0.229652677936937,9.80658544041064,1,"(51.85, 9.3167, 492)",NW,Koeterberg,51.85,9.3167
10433,7.492542383582013,5.917198707547758,17.459623788603203,0.5116913610179221,9.848878853593352,0,"(51.8678, 9.2722, 258)",NW,Luegde-Paenbruch,51.8678,9.2722
10435,7.69732980743894,5.881971565409499,18.06751380376345,0.5351854965792749,9.760875654667354,0,"(51.5, 9.1833, 225)",NW,Warburg,51.5,9.1833
10436,8.098685573150643,6.038966209667724,19.665467385395228,0.0,9.395172044712046,1,"(51.4, 9.3833, 277)",HE,Kassel / Calden,51.4,9.3833
10438,7.485189266423021,5.566725467881271,16.818917231906383,0.1977596958911121,9.712450810363398,0,"(51.3, 9.45, 231)",HE,Kassel,51.3,9.45
10439,7.940051572059026,6.02878391472414,18.72184476093225,0.2030381154512439,9.59041165203742,0,"(51.1167, 9.2833, 172)",HE,Fritzlar,51.1167,9.2833
10442,7.526156501268872,5.948103963110928,17.254447261716603,0.478792343697854,9.81813400629816,0,"(51.9672, 9.8044, 144)",NI,Alfeld / Buchenbrink,51.9672,9.8044
10444,7.762816341198231,6.005281814992904,17.622222421155538,0.40309695618047,9.677256791102629,0,"(51.5, 9.95, 167)",NI,Göttingen,51.5,9.95
10449,7.7726618993519825,5.989601577215359,17.691582040923667,0.4607829720742819,9.577765745733029,0,"(51.4, 10.3167, 356)",TH,Leinefelde,51.4,10.3167
10452,7.724142385721445,6.191596680234046,18.794858415453053,0.5250791125709744,9.51007190814466,0,"(51.7333, 10.6, 607)",NI,Braunlage,51.7333,10.6
10453,7.456907573535898,6.638715560330522,20.095868853947845,0.3106836268446972,9.6955668868805,1,"(51.8, 10.6167, 1142)",ST,Brocken,51.8,10.6167
10454,7.880345494075041,6.029360440579556,17.636284343292182,0.3851559545897535,9.737689312114016,0,"(51.85, 10.7667, 234)",ST,Wernigerode,51.85,10.7667
10458,7.953616474261975,6.03292134487319,18.64657478217195,0.4423020881102257,9.620923945846696,1,"(51.65, 11.1333, 404)",ST,Harzgerode,51.65,11.1333
10460,8.288370096358308,5.945431938573575,18.686183465830563,0.2941389750360229,9.403943509312,0,"(51.3833, 11.3, 164)",ST,Artern,51.3833,11.3
10466,7.852327284930438,5.518200379257529,17.630520994701733,0.2024061255835665,9.452178741583138,1,"(51.5167, 11.95, 96)",ST,Halle-Kroellwitz,51.5167,11.95
10469,8.305059281741709,5.999813574325033,19.05643962497828,0.3491802944274811,12.065287592205186,1,"(51.4167, 12.2333, 144)",SN,Leipzig-Schkeuditz,51.4167,12.2333
10471,8.268203628512763,6.126458398681942,18.92130663032162,0.4085976829776691,9.244847240071126,0,"(51.3167, 12.4167, 146)",SN,Leipzig,51.3167,12.4167
10474,8.329333578286146,6.0800140003095935,19.825092415805408,0.4334883803811974,9.425318140699408,0,"(51.8833, 12.65, 105)",ST,Wittenberg,51.8833,12.65
10476,8.57933475632792,6.214255624354855,20.698315933736662,0.231088163619564,9.362078226068396,0,"(51.7667, 13.1833, 79)",BB,Holzdorf,51.7667,13.1833
10480,8.354325475643037,6.1656297817788825,18.693114361525318,0.3953598019921936,9.276746005282805,0,"(51.3, 13.1, 150)",SN,Oschatz,51.3,13.1
10488,8.29768079587674,6.328371701662175,18.203387539284968,0.3499701400760794,9.159863833779042,1,"(51.1333, 13.75, 230)",SN,Dresden / Klotzsche,51.1333,13.75
10490,8.462082686133076,6.202603138823244,19.509834140353888,0.4193614610006579,9.67153486578088,0,"(51.65, 13.5833, 97)",BB,Doberlug-Kirchhain,51.65,13.5833
10492,8.216993986904352,5.910937483865472,18.86023612224493,0.2271771532954053,9.266288795183716,0,"(51.7667, 14.3, 67)",BB,Cottbus Flugplatz,51.7667,14.3
10493,8.07093482778138,6.006677416269479,18.378900105213702,0.2365651196642536,9.150833569833106,0,"(51.6667, 14.6333, 100)",BB,Preschen,51.6667,14.6333
10495,8.485967305196281,6.316269521907549,20.001919130687103,0.350660200256953,9.16832790238592,0,"(51.4506, 14.2544, 116)",SN,Hoyerswerda / Seidewinkel,51.4506,14.2544
10496,8.54362140905401,6.389982509272403,20.13614757215371,0.461902951141303,9.236892674446157,0,"(51.7833, 14.3167, 69)",BB,Cottbus,51.7833,14.3167
10499,8.302393581157766,6.511152027148719,18.18784435607479,0.3766396463846327,9.04666834045751,1,"(51.1667, 14.95, 237)",SN,Goerlitz,51.1667,14.95
10500,7.435482482396459,5.579614359195493,17.43967027700107,0.2809532658207646,10.001289833564664,0,"(50.9667, 6.05, 90)",NW,Geilenkirchen,50.9667,6.05
10501,7.121572025091396,5.2637641622123805,16.27883445142173,0.1810136831937115,9.943638907463496,1,"(50.7833, 6.1, 202)",NW,Aachen,50.7833,6.1
10502,7.539330673612914,5.724901738491731,18.217886675734075,0.268477016042566,9.828353888874178,0,"(50.8333, 6.6667, 118)",NW,Noervenich,50.8333,6.6667
10505,7.188020555287178,5.721151965181659,17.11444579934235,0.5643946470836745,9.874356665514313,1,"(50.7667, 7.1667, 60)",NRW,Bonn-Hangelar,50.7667,7.1667
10506,7.506936737128053,5.770921137715711,18.9022100984136,0.5521140266759414,9.616193938766507,0,"(50.35, 6.8667, 485)",RP,Nürburg-Barweiler,50.35,6.8667
10507,1.5555180370655828,1.3101700097870714,1.949358868961786,0.5121963496000875,1.1404145976553866,0,"(50.4, 6.5333, 578)",NW,Dahlemer Binz,50.4,6.5333
10510,7.239273677274894,5.491159893609693,17.715509176151745,0.2540950010209262,9.66989794641323,0,"(50.3333, 6.95, 629)",RP,Nürburg,50.3333,6.95
10513,7.615050034335704,5.890150294688054,18.91840735600757,0.5534404325802701,9.691134945119728,0,"(50.8667, 7.1667, 91)",NW,Köln-Bonn Airport,50.8667,7.1667
10514,7.3963511465975715,5.528787870257079,17.424550258455728,0.2157757432550563,9.587464367867105,0,"(50.3667, 7.3167, 182)",RP,Mendig,50.3667,7.3167
10515,7.497279648787681,5.550779724453654,17.52950681134461,0.2309023206159866,9.545871408384189,0,"(50.4167, 7.5833, 127)",RP,Bendorf,50.4167,7.5833
10516,7.815527880162016,5.854494097086185,19.00123253907732,0.2340716446083275,9.52062761088368,0,"(50.3733, 7.5844, 84)",RP,Koblenz / Lützel,50.3733,7.5844
10517,7.35302125860114,5.339724745520319,16.716015155575857,0.2520131860015812,9.71355730634656,0,"(50.7, 7.15, 64)",NW,Bonn-Friesdorf,50.7,7.15
10519,7.523606820420241,5.774453032389207,18.025857762949716,0.4194753256457849,9.669399908925756,0,"(50.7333, 7.2, 159)",NW,Bonn-Roleber,50.7333,7.2
10521,7.396004859296993,5.591373673515377,17.989394407547326,0.3385516825072456,9.675892925109512,0,"(50.9333, 8.2, 635)",NW,Rothaargebirge,50.9333,8.2
10526,7.70550052537698,5.92531040690177,20.11330211731295,0.475751710741442,9.47538730372363,1,"(50.6667, 7.9667, 547)",RP,Bad Marienberg,50.6667,7.9667
10528,8.06972584337614,6.2465248619773215,21.66163251393392,0.0,9.307170999086509,1,"(50.7167, 8.0833, 599)",NW,Siegerland,50.7167,8.0833
10532,8.020542410231839,5.927594453689537,19.4227498736538,0.6146502039672097,9.445317763680146,0,"(50.5833, 8.7, 186)",HE,Giessen,50.5833,8.7
10534,7.872600234417134,6.1413862060680255,20.483361961328924,0.6143353908032443,9.283914439243144,1,"(50.5086, 9.2247, 743)",HE,Hoherodskopf-vogelsberg / Breungeshain,50.5086,9.2247
10535,7.710105363643934,5.619447235893811,17.290042557312134,0.2029141663505621,9.540095183710076,0,"(50.8167, 9.1333, 349)",HE,Wahlen,50.8167,9.1333
10536,7.761960667896669,5.7474951107532375,17.319565790798414,0.2444282020980769,9.397641378776614,0,"(50.55, 9.65, 305)",HE,Fulda Usa  Af,50.55,9.65
10537,7.815130030364939,6.040325075726163,18.63003341677754,0.5212622093943607,9.466707571423605,1,"(50.7531, 9.0236, 350)",HE,Neu Ulrichstein / Dannenrod,50.7531,9.0236
10540,7.909446351427248,6.026352766110844,17.943760468547165,0.4495194117151627,9.471547186715249,0,"(51.0025, 10.3636, 312)",TH,Eisenach / Landstreit,51.0025,10.3636
10542,8.097075826044165,6.021580138584796,19.45260277438007,0.3891088631114072,9.47649402425278,0,"(50.85, 9.7333, 273)",HE,Bad Hersfeld,50.85,9.7333
10544,7.903927970610701,6.331723668125391,19.82884190859091,0.5933417066191439,9.072851466095184,1,"(50.5, 9.95, 921)",HE,Wasserkuppe,50.5,9.95
10546,7.73728619902478,5.801140349566322,17.73477487446714,0.2733666961103188,9.394137654588413,0,"(50.6333, 10.15, 487)",TH,Kaltennordheim,50.6333,10.15
10548,8.12808637440712,6.187675392409457,19.541138094519592,0.5453727232897304,9.292702739364335,0,"(50.5667, 10.3833, 450)",TH,Meiningen,50.5667,10.3833
10552,7.936975443348,6.414477309362256,18.57140538449952,0.6427695625524197,9.301191174604917,1,"(50.65, 10.7667, 937)",TH,Schmuecke,50.65,10.7667
10554,8.098440667571115,6.022379140791763,18.088229261013865,0.4380651671759129,9.45713686437185,1,"(50.9833, 10.9667, 315)",TH,Erfurt / Bindersleben,50.9833,10.9667
10555,7.767775359403366,5.712307898950267,16.75153946891044,0.1984152173128601,9.44586878974753,1,"(50.9833, 11.3167, 264)",TH,Weimar,50.9833,11.3167
10557,8.024833353878401,6.323849712908998,19.278573423442023,0.6051970164850818,9.078652194922032,1,"(50.5, 11.1333, 845)",TH,Neuhaus am Rennweg,50.5,11.1333
10558,7.799004898602028,5.898247482411495,17.073124747528837,0.2651970553834262,9.208035381314591,0,"(50.3833, 11.1833, 626)",TH,Sonneberg-Neufang,50.3833,11.1833
10564,8.10621386759952,6.204815777719073,18.3057509135103,0.4622560858998544,9.203247399413357,1,"(50.5667, 11.8167, 501)",TH,Schleiz,50.5667,11.8167
10565,8.074552594950367,6.091439944186312,17.966091064700212,0.4000492605140568,9.35926727823395,0,"(51.0833, 11.9333, 262)",ST,Osterfeld,51.0833,11.9333
10567,8.182270167167982,6.226252013279034,17.906475866210684,0.462508080172572,9.261620594837558,1,"(50.8833, 12.1333, 311)",TH,Gera-Leumnitz,50.8833,12.1333
10569,8.287580984486667,6.327017026645291,18.84758033203842,0.4232960445144366,9.180517540156826,0,"(50.4833, 12.1333, 386)",SN,Plauen,50.4833,12.1333
10571,7.833537227646979,6.025113222751622,17.925720856402826,0.0316227766016838,10.13049483462714,0,"(49.43, 7.6, 238)",RP,Kindsbach / Landstuhl,49.43,7.6
10574,7.986384006682612,6.47469346804687,18.129535504421504,0.6045526560756433,9.075819091985194,0,"(50.4333, 12.6167, 898)",SN,Carlsfeld,50.4333,12.6167
10575,8.195453661310108,6.463628612427958,18.36265066347477,0.4938264657189949,9.1419914421174,1,"(50.6, 12.7167, 391)",SN,Aue,50.6,12.7167
10577,8.117293262305592,6.365335068621979,18.092919689336583,0.4108268306592519,9.12734976363474,1,"(50.8, 12.8667, 418)",SN,Chemnitz,50.8,12.8667
10578,7.891425051583178,6.871664836897346,18.428282387100275,0.3031658745624681,8.985941704867512,1,"(50.4333, 12.95, 1213)",SN,Fichtelberg,50.4333,12.95
10579,8.02074280730135,6.615959148069973,18.10319991279013,0.4796937112339796,9.216295306245383,0,"(50.65, 13.15, 639)",SN,Marienberg,50.65,13.15
10582,8.134392408210845,6.6134698641730045,18.238313090621965,0.5093323849746337,9.094510010537896,1,"(50.7333, 13.75, 877)",SN,Zinnwald-Georgenfeld,50.7333,13.75
10591,8.275834236359843,6.524468534087588,18.35891118809757,0.532198675102115,9.040537718510752,1,"(50.9333, 14.2167, 300)",SN,Lichtenhain-Mittelndorf,50.9333,14.2167
10607,7.7862724628528355,5.835704215022505,20.530364085813048,10.29503026868562,9.329329473286965,0,"(49.9833, 6.7, 365)",RP,Spangdahlem,49.9833,6.7
10609,7.879749021659491,5.738037779970031,20.019634483534954,0.4468906931039382,9.35665275063758,1,"(49.75, 6.6667, 265)",RP,Trier-Petrisberg,49.75,6.6667
10613,7.677110755011234,5.772786150941543,20.268243135460818,0.231485570698133,9.490906862714215,1,"(50.1667, 7.0667, 478)",RP,Büchel,50.1667,7.0667
10614,8.31260963153356,6.218497962734785,21.292987792086752,12.247790154080931,9.150412203716035,0,"(49.4333, 7.6, 238)",RP,Ramstein Air Base,49.4333,7.6
10615,7.592256669068091,5.898407494533784,18.76684114761542,0.5630980860048594,9.307227458885643,1,"(49.7667, 7.05, 480)",RP,Deuselbach,49.7667,7.05
10616,7.671017958715065,5.8228666311392425,19.57664414038356,0.4432215697564529,9.366156961315726,1,"(49.95, 7.2667, 491)",RP,Frankfurt-Hahn Airport,49.95,7.2667
10617,7.708710784217298,5.445544669263035,18.77403084400721,0.2472383526496056,9.467945040524334,0,"(49.9667, 7.1167, 257)",RP,Traben-Trarbach,49.9667,7.1167
10618,7.910058721403242,5.939620359314692,20.008743447293703,0.2492391915612524,9.288564437525276,0,"(49.7, 7.3333, 376)",RP,Idar-Oberstein,49.7,7.3333
10619,7.71769972478193,5.7177387275938125,18.937267371455025,0.3059281323552301,9.85080535762506,0,"(49.65, 7.3, 426)",RP,Baumholder United States Army Air Field,49.65,7.3
10627,8.114252289273368,5.799281869376181,19.87535708884774,0.4424100728674815,1.2363435827250864,0,"(49.85, 7.8833, 103)",RP,Bad Kreuznach,49.85,7.8833
10628,7.977938175755865,5.963011624454003,19.297021144683224,0.3754977343910196,9.27138689071897,0,"(49.9833, 7.95, 118)",HE,Geisenheim,49.9833,7.95
10633,8.13390872007765,6.245270776505122,19.854733296495237,0.4087491468794144,9.255743137321092,0,"(50.05, 8.3333, 140)",HE,Wiesbaden,50.05,8.3333
10635,7.784562408869907,6.075473658025002,20.66105817863948,0.5344977858641492,9.305040528394882,1,"(50.2167, 8.45, 805)",HE,Kleiner Feldberg,50.2167,8.45
10637,8.249431931499558,5.934773222117633,20.639190389715427,0.3699612899393826,9.243335509833871,0,"(50.05, 8.6, 111)",HE,Frankfurt Airport,50.05,8.6
10640,7.892999819071929,5.645904587842693,19.04254552703143,0.2086843633556936,9.270200085907994,0,"(50.1167, 8.7333, 98)",HE,Offenbach am Main,50.1167,8.7333
10641,8.155273011879723,6.048052536833626,20.28952476470732,0.4174408131729002,9.25731992017622,0,"(50.0894, 8.7864, 119)",HE,Offenbach Wetterpark,50.0894,8.7864
10645,7.615267917380869,5.800510239462334,18.234945065316403,0.317630644378042,9.1437371095668,1,"(49.9, 9.4333, 585)",BY,Breitsol,49.9,9.4333
10648,8.003365862941623,5.989334631500494,19.71527396643323,0.4593995696131159,9.087052376732906,1,"(49.7167, 9.1, 453)",HE,Michelstadt-Vielbrunn,49.7167,9.1
10655,8.342082033499683,6.125389400775062,19.57707195032744,0.3715343811991143,9.089756214804916,0,"(49.7667, 9.9667, 268)",BY,Wuerzburg,49.7667,9.9667
10658,8.204582978989242,6.13097315346831,20.13004665685696,0.4300368425603741,9.179526043758813,0,"(50.2, 10.0833, 262)",BY,Bad Kissingen,50.2,10.0833
10671,8.251205538141239,6.247180293610838,19.353191345457297,0.3758195127240643,9.124108118139166,0,"(50.2833, 10.9833, 322)",BY,Coburg,50.2833,10.9833
10675,8.509320882622879,6.490697529598537,20.42630029056995,0.3894829298712867,9.081476620548582,0,"(49.9167, 10.9, 239)",BY,Bamberg,49.9167,10.9
10677,7.924101721296769,5.999635723974307,17.396807459538735,0.2827725151440773,9.103671912889702,0,"(49.9833, 11.6333, 488)",BY,Bayreuth,49.9833,11.6333
10684,7.893877646930043,5.951984588912611,17.495513672006645,0.2605103703218759,9.183008423887316,0,"(50.2833, 11.85, 585)",BY,Hof,50.2833,11.85
10685,8.217739850903486,6.20206597758072,19.13568752579227,0.4169742098254623,9.134084551684444,0,"(50.3167, 11.8833, 565)",BY,Hof,50.3167,11.8833
10686,8.153210327189976,6.290397474429066,18.31354362133803,0.440555269495223,9.019627414437489,0,"(50.0317, 11.9744, 622)",BY,Wunsiedel Schonbrun / Schönbrunn,50.0317,11.9744
10687,8.659116247645267,6.633148098915804,22.047778844328533,19.719198871032223,8.924927355672242,0,"(49.7, 11.95, 415)",BY,Grafenwoehr,49.7,11.95
10688,8.45613467489479,6.379482665795706,19.86519540029737,0.4649091654754003,8.954639939978563,0,"(49.6667, 12.1833, 438)",BY,Weiden,49.6667,12.1833
10702,8.150598802538324,6.1302400239430925,19.48498626530125,0.0,8.740953394677227,0,"(48.7847, 8.082, 125)",BW,Karlsruhe (Baden-Baden) / Söllingen,48.7847,8.082
10704,7.883469913520068,5.774902879570312,20.74034196201721,0.4785091540376328,9.112519203014465,1,"(49.2833, 6.6833, 363)",SL,Berus,49.2833,6.6833
10706,7.808402656035467,5.793244505570785,20.28485665702915,0.6122665193105561,9.13417018109504,1,"(49.4833, 7.05, 396)",SL,Tholey,49.4833,7.05
10708,7.830773057904965,5.918307597675831,19.327008022208936,0.5842239825437187,9.056195386762166,1,"(49.2167, 7.1167, 322)",SL,Saarbruecken / Ensheim,49.2167,7.1167
10714,7.738158497569488,5.534727678931435,19.120018005106942,0.2627182505327652,9.049885022966114,1,"(49.2167, 7.4, 345)",RP,Zweibrücken Airfield,49.2167,7.4
10722,7.969563088252928,5.794947411991094,17.67427331945205,0.2407290021197077,8.860010881371059,0,"(48.7667, 8.1, 123)",BW,Sollingen / Schiftung,48.7667,8.1
10724,8.099093607898304,5.869501618846503,20.96242307198428,0.3929504895195642,9.07711030801715,1,"(49.3833, 8.1167, 553)",RP,Weinbiet,49.3833,8.1167
10725,4.938554260288954,4.418650212108862,4.661252270288827,0.0,0.9962657549797598,0,"(48.8, 8.1833, 126)",BW,Baden-Oos,48.8,8.1833
10727,7.92116063586141,5.677905395194308,18.550153812936824,0.2037661929391083,8.961058421745296,0,"(49.0333, 8.3667, 112)",BW,Karlsruhe,49.0333,8.3667
10729,8.181354215255068,5.992526685301657,20.08611836488978,0.4712877062138262,9.042314226356396,0,"(49.52, 8.55, 96)",BW,Mannheim,49.52,8.55
10730,8.452588529673308,6.003911192461006,21.0474098897087,0.0,8.936839808419906,0,"(49.4667, 8.5, 100)",BW,Mannheim Neuostheim,49.4667,8.5
10731,8.216915413720042,6.021747302911187,19.979687674951634,0.4186519691692008,8.92934249557141,0,"(48.9736, 8.3311, 116)",BW,Rheinstetten,48.9736,8.3311
10733,8.120773060539793,6.100208377724103,19.700108560321368,0.5158096225217212,8.985042619940097,0,"(49.2953, 8.9064, 237)",BW,Waibstadt,49.2953,8.9064
10735,7.996646690311013,5.802835071087886,18.784668097961585,0.2137297423424903,8.970512311190795,0,"(49.25, 8.8833, 169)",BW,Sinsheim,49.25,8.8833
10736,8.416106206509616,6.141803243818126,20.530246625903867,0.4738429635280538,8.935168011426377,0,"(48.9667, 8.8667, 244)",BW,Muehlacker,48.9667,8.8667
10738,8.157529306120352,6.210669059415815,18.42381029385396,0.4904811580573498,8.854284011322632,0,"(48.6833, 9.2167, 396)",BW,Stuttgart-Echterdingen,48.6833,9.2167
10739,8.039390250296107,6.159137658052109,18.724943212937333,0.5174729900617112,8.853484077608313,0,"(48.8333, 9.2, 314)",BW,Stuttgart / Schnarrenberg,48.8333,9.2
10742,8.180774425792812,6.077330383220355,19.221541280280533,0.5309773845300424,8.945551273705217,0,"(49.2167, 9.5167, 276)",BW,Oehringen,49.2167,9.5167
10743,8.170903427318029,6.137040873570201,19.300609129499136,0.2606159264469181,8.97545340293728,1,"(49.4, 9.9667, 468)",BW,Niederstetten,49.4,9.9667
10745,7.448812325840895,6.168161124408147,17.50779240087271,0.0,12.279014396716104,1,"(53.4167, 11.7833, 52)",MV,"Mecklenburg-Vorpommern, Parchim",53.4167,11.7833
10747,8.162687033929265,6.268094599285458,19.847142651890564,0.5799999999291907,8.905423733758312,0,"(48.9181, 9.6883, 489)",BW,Kaisersbach-cronhuette / Cronhütte,48.9181,9.6883
10752,8.480462537656088,6.299654740781968,22.013979613431744,1.144177500323611,8.961679603981556,0,"(49.4667, 10.3833, 325)",BY,Illesheim,49.4667,10.3833
10755,8.305679109875442,6.394028646727594,21.795296759847893,0.5679299746126507,8.903084369566244,0,"(49.3167, 10.6333, 467)",BY,Ansbach / Katterbach,49.3167,10.6333
10756,8.215301867301289,6.276972168526367,19.15958537230346,0.5432029256588212,8.934335175247579,0,"(49.1633, 10.3672, 475)",BY,Feuchtwangen-heilbronn,49.1633,10.3672
10761,8.207171637772323,6.390740314455655,19.22081403996927,0.4423127353489557,8.866992554718108,0,"(49.0167, 10.9667, 422)",BY,Weissenburg,49.0167,10.9667
10763,8.453920374304998,6.346668420738845,19.93879894509289,0.3875079439277306,8.967334137199398,0,"(49.5, 11.05, 318)",BY,Nuernberg,49.5,11.05
10765,8.507085693008264,6.506327375652482,19.9000678728952,0.5305491396933347,8.933455983140357,0,"(49.2167, 11.1, 388)",BY,Roth,49.2167,11.1
10771,8.526253366632824,6.477048432890038,20.271139206840783,0.257513486173006,8.884571689450361,0,"(49.4333, 11.9, 419)",BY,Kuemmersruck,49.4333,11.9
10775,8.62827695825651,6.940642198484497,19.831595303338545,1.2805115988442697,8.803457810713882,0,"(49.2167, 11.8333, 442)",BY,Hohenfels,49.2167,11.8333
10776,8.666680526329243,6.588181301079145,20.080285704437724,0.5593187462838929,8.832732404112296,0,"(49.05, 12.1, 366)",BY,Regensburg,49.05,12.1
10777,8.284071799307087,6.400964183535507,19.54508254183064,0.4959377164203382,8.803521759669552,0,"(48.95, 11.4333, 539)",BY,Gelbelsee,48.95,11.4333
10782,8.390855604367877,6.645894254380345,18.754526711974204,0.4464336697392899,8.910837212293897,0,"(49.3922, 12.6853, 499)",BY,Waldmunchen / Hocha,49.3922,12.6853
10788,8.484542306328258,6.526583002335202,19.3853691711305,0.483295838191617,8.795922300401543,0,"(48.8333, 12.5667, 350)",BY,Straubing,48.8333,12.5667
10791,7.831574912447478,7.502022993550845,21.122166805721225,0.6876688847253074,8.710945371139987,1,"(49.1167, 13.1333, 1437)",BY,Grosser Arber,49.1167,13.1333
10796,8.534088848232317,6.93035770735745,19.34889322427896,0.5409933097078928,8.814427977392794,0,"(49.0333, 13.2333, 612)",BY,Zwiesel,49.0333,13.2333
10803,8.16619716022111,6.141362363727609,19.23533715745187,0.506538174300479,8.626838386561948,0,"(48.0, 7.85, 269)",BW,Freiburg,48.0,7.85
10805,8.071855863660016,6.016822186270156,18.503542484196306,0.5315259299546102,8.749228270225313,0,"(48.3667, 7.8333, 155)",BW,Lahr,48.3667,7.8333
10815,7.857102114806771,6.171717412630626,19.44357492736385,0.7336150398336948,8.67592425929669,0,"(48.45, 8.4167, 797)",BW,Freudenstadt,48.45,8.4167
10818,7.94217598141926,6.511853800256141,19.79384820012313,0.4652310881761364,8.622797984959588,1,"(48.1, 8.75, 973)",BW,Klippeneck,48.1,8.75
10827,7.951350922248906,6.448621900449298,18.04281843729976,0.5486081323309167,8.64080259521437,0,"(48.1833, 9.0, 920)",BW,Messstetten,48.1833,9.0
10828,8.055187917375088,6.106600701437726,17.013187789922615,0.3366943806851275,8.678775082906016,0,"(48.1, 9.25, 645)",BW,Sigmaringen,48.1,9.25
10836,8.0676865396631,6.360752649164191,18.935113392177552,0.5575466412121145,8.745509882707376,1,"(48.6667, 9.8667, 734)",BW,Stoetten,48.6667,9.8667
10837,8.185435773161004,6.378533609628406,18.30358622416459,0.3581299570521095,8.74804403624736,0,"(48.2167, 9.9167, 538)",BW,Laupheim,48.2167,9.9167
10838,8.009833466495264,6.074324702558305,16.82838928819825,0.2293143795321307,8.793473643082995,0,"(48.3833, 9.95, 567)",BW,Ulm,48.3833,9.95
10850,8.198827853867046,6.460092980060057,19.272315354891187,0.5367908758363523,8.797280007429448,0,"(48.7833, 10.7, 457)",BY,Harburg,48.7833,10.7
10852,8.166711037336674,6.499295954561665,18.1242522930833,0.4553770430775883,8.795139166929797,0,"(48.4333, 10.9333, 461)",BY,Augsburg,48.4333,10.9333
10853,8.427861798980278,6.52071557058766,19.124789687781387,0.2847846512580577,8.82396337385338,0,"(48.7167, 11.2167, 380)",BY,Neuburg / Donau,48.7167,11.2167
10856,8.306195731751783,6.614481505067208,18.61499405840673,0.3314419042170379,8.771752355011442,0,"(48.1833, 10.8667, 555)",BY,Lechfeld,48.1833,10.8667
10857,8.099270122629804,6.328704661280418,16.905988183181154,0.3376448065112152,8.722651139375081,0,"(48.0667, 10.9, 623)",BY,Landsberg,48.0667,10.9
10858,8.038900282180773,6.269273801249817,16.811692387021793,0.3666339065737537,8.748515239993628,0,"(48.2, 11.2667, 519)",BY,Fuerstenfeldbruck,48.2,11.2667
10859,8.172114637582306,6.531968077330675,19.09180027858901,0.0,8.451732845962539,0,"(48.0833, 11.2833, 593)",BY,Oberpfaffenhofen,48.0833,11.2833
10860,8.465786979641887,6.622269580753458,19.794760863164026,0.2836751435752359,8.816193403142439,0,"(48.7167, 11.5333, 367)",BY,Ingolstadt,48.7167,11.5333
10863,8.18404569332996,6.634289351075413,18.44642652358956,0.5135805091408169,8.762248057006188,0,"(48.4, 11.7, 470)",BY,Weihenstephan,48.4,11.7
10865,8.192502038309808,6.51897326769678,18.79979415274827,0.6459565628043883,8.719376876255723,0,"(48.1333, 11.55, 520)",BY,München,48.1333,11.55
10866,8.321841474169387,6.608321757385397,18.38010161324585,0.0,8.437144917719985,0,"(48.35, 11.7833, 453)",BY,Munich Airport,48.35,11.7833
10868,2.44989795705862,0.6484947606152687,11.308082387068426,0.5307830986728284,1.0912878130489196,0,"(48.25, 11.55, 484)",BY,Muenchen-Oberschleissheim,48.25,11.55
10872,8.480694576041428,6.612101104128326,19.133752949284503,0.4505523339468515,8.778219387149438,0,"(48.6606, 12.5403, 350)",BY,Gottfrieding,48.6606,12.5403
10875,8.435248987914637,6.57318156955114,19.03995002915049,0.5727384445084424,8.72648345127096,0,"(48.2833, 12.5, 405)",BY,Muehldorf,48.2833,12.5
10893,8.183986097813928,6.552473617692487,17.26807431747797,0.3430280085433982,8.770044704842393,0,"(48.5833, 13.4667, 409)",BY,Passau,48.5833,13.4667
10895,8.40131413395599,6.722331123758787,19.09065211178912,0.4977993019124528,8.702762865221166,0,"(48.5461, 13.3547, 476)",BY,Fuerstenzell / Hillermeier,48.5461,13.3547
10908,7.381231228798346,7.321390085477518,21.449937588978383,0.8842192624237534,8.464945834809757,1,"(47.8833, 8.0, 1486)",BW,Feldberg,47.8833,8.0
10912,8.795490852741496,6.494634302658981,16.56090988634792,0.0,0.8926976480920849,0,"(47.9667, 8.5167, 680)",BW,Donaueschingen / Villingen,47.9667,8.5167
10929,8.146161335423724,6.324767054040591,18.249377610906556,0.5163175286418055,8.579131213144146,0,"(47.6833, 9.1833, 443)",BW,Konstanz,47.6833,9.1833
10935,8.149924804540836,6.530363447706903,17.988190339781987,0.373742997153862,8.39906761035615,0,"(47.6667, 9.5167, 416)",BW,Friedrichshafen,47.6667,9.5167
10945,8.197236059978758,6.634888361167601,17.12483878863273,0.7125632306734951,8.667876339748114,0,"(47.7964, 10.0336, 672)",BW,Leutkirch-Herlazhofen / Grünenbach,47.7964,10.0336
10946,8.275646857916687,6.6653127329702615,18.13356716419294,0.7009307408476695,8.663285882595986,0,"(47.7167, 10.3333, 705)",BY,Kempten,47.7167,10.3333
10947,8.045186978728204,6.56685858674273,17.438076848905624,0.5667996405074242,8.678225644684577,0,"(47.9833, 10.2333, 634)",BY,Memmingen,47.9833,10.2333
10948,8.57786351783754,6.995911628284987,17.949491693627305,0.7751753753069769,8.465157618985799,0,"(47.4, 10.2833, 810)",BY,Oberstdorf,47.4,10.2833
10954,8.15975187398434,6.6484015959584095,18.10279916792898,0.4136996643036785,8.455107968239275,1,"(47.8333, 10.8667, 739)",BY,Altenstadt,47.8333,10.8667
10961,6.842942159202074,8.736732691823528,23.796598979983106,0.538282424345963,8.44261706828654,1,"(47.4167, 10.9833, 2960)",BY,Zugspitze,47.4167,10.9833
10962,7.870470840997746,6.7176110677158185,20.369588240381866,0.7088155683197433,8.617427947521072,1,"(47.8, 11.0167, 977)",BY,Hohenpeissenberg,47.8,11.0167
10963,8.584273826977412,6.886424523757806,19.69426156496085,0.7093793648519712,8.80199698496645,0,"(47.4833, 11.0667, 719)",BY,Garmisch-Partenkirchen,47.4833,11.0667
10980,7.148717642289784,7.85644364286497,19.0810495131402,0.8065330494437322,8.558538185583592,0,"(47.7, 12.0167, 1832)",BY,Wendelstein,47.7,12.0167
10982,8.09924101086067,6.7849134006441405,17.200898801682488,0.6391134452734155,8.697168568433314,0,"(47.8833, 12.5333, 549)",BY,Chieming,47.8833,12.5333
69090,3.605551275463989,3.580968211717794,18.036999011291577,0.4874888439334294,2.851834207884788,0,"(49.4, 8.65, 109)",BW,Heidelberg / Eppelheim,49.4,8.65
69739,3.038640046687552,1.7536085244839732,11.543293249658827,0.4874888439334294,2.851834207884788,1,"(49.8, 9.98, 266)",BY,Wurzburg / Lengfeld,49.8,9.98
D0020,0.1154700538379251,0.1154700538379251,0.0,0.5294060270651696,0.115470053837935,0,"(48.922, 9.9129, 432)",BW,Abtsgmünd-Untergröningen,48.922,9.9129
D0044,7.262905054108183,5.782006584143093,17.762318677568285,0.3811393331179065,0.3055050463302913,1,"(52.9336, 8.237, 44)",NI,Großenkneten,52.9336,8.237
D0053,0.2309401076758503,0.2309401076758503,0.0,0.433477640708522,0.4163331998932666,0,"(52.585, 13.5634, 60)",BB,Ahrensfelde,52.585,13.5634
D0071,8.224181080711576,6.57019537057793,18.330208361448413,0.5685842351243905,0.05773502691891,0,"(48.2156, 8.9784, 759)",BW,Albstadt-Badkap,48.2156,8.9784
D0073,8.488787945350218,6.867742305079953,18.651832481328785,0.4064174470183879,0.1527525231651922,0,"(48.6159, 13.0506, 340)",BY,Aldersbach-Kriestorf,48.6159,13.0506
D0078,7.345185378239122,5.775859453297974,17.978679882096788,0.4548474892501579,0.3605551275464296,0,"(52.4853, 7.9126, 65)",NI,Alfhausen,52.4853,7.9126
D0087,0.8504900548115382,0.6082762530298219,1.5275252316519483,0.4338205122689538,0.2645751311064977,0,"(51.095, 11.0479, 158)",TH,Alperstedt,51.095,11.0479
D0091,7.985639581565369,6.006119846938466,19.244032308350675,0.4511305753412392,0.2516611478423553,0,"(50.7446, 9.345, 300)",HE,Alsfeld-Eifa,50.7446,9.345
D0096,7.505102564381193,5.647307131047247,20.04333548325807,0.3966929745813828,9.59184332777199,0,"(52.9437, 12.8518, 50)",BB,Neuruppin-Alt Ruppin,52.9437,12.8518
D0103,0.4932882862316247,0.5291502622129182,0.5773502691896247,0.551028958818335,0.2516611478423553,0,"(48.896, 12.217, 364)",BY,Hagelstadt,48.896,12.217
D0118,0.0577350269189626,0.1,0.5773502691896247,0.44032050677309,0.2000000000000454,0,"(49.4053, 12.2852, 391)",BY,Altendorf,49.4053,12.2852
D0124,0.1527525231651947,0.1527525231651947,0.0,0.3794645537962809,0.2081665999465855,0,"(51.2388, 11.577, 265)",ST,"Bibra, Bad-Altenroda",51.2388,11.577
D0130,0.0577350269189625,0.1154700538379251,0.5773502691896278,0.4292499010163561,0.1527525231651425,0,"(49.7283, 9.7692, 300)",BY,Altertheim-Oberaltertheim,49.7283,9.7692
D0131,8.123145470796173,6.274094939453269,17.54478255700994,0.4520338654771939,0.2516611478423553,0,"(51.0881, 12.9326, 296)",SN,Geringswalde-Altgeringswalde,51.0881,12.9326
D0142,8.212234535201041,6.519715853648721,18.64033964440604,0.5504416005765576,0.1527525231652169,0,"(48.406, 11.3117, 510)",BY,Altomünster-Maisbrunn,48.406,11.3117
D0150,7.992289056105728,5.746051073945193,18.85543155297228,0.4602408244816361,0.2000000000000312,0,"(49.7273, 8.1164, 215)",RP,Alzey,49.7273,8.1164
D0151,8.724881738790282,6.41291319407339,20.625752905562923,0.4631939836181021,0.0999999999999232,0,"(49.4691, 11.8546, 383)",BY,Amberg-Unterammersricht,49.4691,11.8546
D0154,8.258258122524476,6.754794207040456,18.805647029436223,0.6053205327049236,0.2645751311064011,0,"(48.0197, 12.2924, 515)",BY,Amerang-Pfaffing,48.0197,12.2924
D0158,0.264575131106459,0.3785938897200182,0.5773502691896278,0.6712461478740698,0.2516611478423553,0,"(50.784, 8.9545, 210)",HE,Amöneburg-Rüdigheim,50.784,8.9545
D0161,8.001366068252125,5.852260790798434,19.51499989278947,0.5127045392582628,9.569043672351356,0,"(50.4237, 7.4202, 75)",RP,Andernach,50.4237,7.4202
D0191,8.332542035617035,6.247014230490181,20.21216254313619,0.4445760506666516,0.2516611478424061,0,"(49.9695, 9.9113, 220)",BY,Arnstein-Müdesheim,49.9695,9.9113
D0194,0.3,0.0,2.0,0.4173807746983268,0.2645751311064655,0,"(51.3431, 9.0763, 265)",HE,"Arolsen-Landau, Bad",51.3431,9.0763
D0198,8.294380002093547,5.932729985869555,18.64339976922168,0.2934049551894879,9.493591541440091,0,"(51.3745, 11.292, 164)",TH,Artern,51.3745,11.292
D0200,0.8621678104251707,0.9712534856222312,0.5773502691896278,0.4960363387539711,0.1527525231651922,0,"(50.085, 6.3161, 517)",RP,Lauperath-Scheidchen,50.085,6.3161
D0205,1.058300524425836,1.1269427669584653,1.1547005383792497,0.8797049626536546,0.351188458428348,0,"(47.7274, 12.2982, 680)",BY,Aschau-Stein,47.7274,12.2982
D0211,8.020799260098899,6.1338463368587295,18.967772033617692,0.5101695140878437,0.2516611478423063,0,"(50.58, 8.4685, 200)",HE,Aßlar Klein-Altenstädten,50.58,8.4685
D0213,0.4509249752822895,0.3055050463303893,1.1547005383792526,0.4157769434226395,0.3055050463304091,0,"(51.9375, 10.9897, 170)",ST,Sargstedt,51.9375,10.9897
D0216,0.0999999999999999,0.2081665999466132,0.5773502691896247,0.5575161133029052,0.1732050807568943,0,"(51.1143, 7.8807, 298)",NW,Attendorn-Neulisternohl,51.1143,7.8807
D0217,7.983498289270133,6.658691953847805,17.81564196374664,0.6355042592608241,0.1527525231651642,0,"(47.8774, 11.3642, 672)",BY,Attenkam,47.8774,11.3642
D0227,0.1732050807568877,0.1732050807568877,0.0,0.4373243997100623,0.23094010767587,0,"(49.8823, 11.2656, 432)",BY,Aufseß-Hochstahl,49.8823,11.2656
D0240,0.0577350269189625,0.0577350269189625,0.0,0.5055660158260332,0.1732050807568697,0,"(50.1805, 9.5743, 287)",BY,Aura im Sinngrund,50.1805,9.5743
D0257,8.030194556020716,6.138297920326231,18.944601570959403,0.6758725947471524,0.1527525231652169,0,"(48.727, 8.2458, 240)",BW,Baden-Baden-Geroldsau,48.727,8.2458
D0259,8.183678280812677,6.088925954627727,19.38275671931945,0.5771267850309788,0.2516611478423214,0,"(47.8064, 7.6387, 273)",BW,Müllheim,47.8064,7.6387
D0269,0.1999999999999997,0.0577350269189623,1.5275252316519483,0.7516438780004001,0.1154700538379596,0,"(48.5116, 8.3176, 596)",BW,Baiersbronn-Mitteltal,48.5116,8.3176
D0275,0.2081665999466134,0.2645751311064592,1.0,0.8432291320179675,0.0577350269189921,0,"(47.465, 10.1043, 1037)",BY,Balderschwang,47.465,10.1043
D0279,0.3,0.264575131106459,1.0,0.6402486692338238,0.0999999999999943,0,"(48.7573, 9.4514, 457)",BW,Baltmannsweiler-Hohengehren,48.7573,9.4514
D0287,0.5567764362830022,0.6557438524302,1.0,0.4193330047888463,0.2886751345948046,0,"(51.9611, 11.9159, 52)",ST,Walternienburg-Ronney,51.9611,11.9159
D0292,0.4163331998932266,0.3055050463303893,0.5773502691896278,0.4382903166085125,0.3605551275463705,0,"(52.6965, 8.487, 37)",NI,Barnstorf,52.6965,8.487
D0294,7.640478990766979,5.82016383466661,17.534377572973444,0.4338712106678051,0.2516611478423553,0,"(52.3199, 9.43, 110)",NI,Barsinghausen-Hohenbostel,52.3199,9.43
D0301,7.415102284045841,5.56123794537873,17.83928273498246,0.5026386671175429,0.1527525231651735,0,"(48.7584, 9.9855, 659)",BW,Bartholomä,48.7584,9.9855
D0310,0.1154700538379252,0.0577350269189628,0.5773502691896247,0.4357493870966284,0.2645751311064655,0,"(51.0662, 8.5375, 590)",HE,Battenberg-Hof Karlsburg,51.0662,8.5375
D0312,0.1,0.2081665999466132,0.5773502691896247,0.429143041506659,0.351188458428406,0,"(53.8149, 11.8818, 52)",MV,Baumgarten,53.8149,11.8818
D0314,8.27937670085325,6.448331637966105,17.674576200694265,0.4232403923290379,0.2081665999466469,0,"(51.1604, 14.5042, 232)",SN,"Kubschütz, Kr. Bautzen",51.1604,14.5042
D0316,0.4582575694955838,0.5,0.5773502691896278,0.5234691866855739,0.2516611478423553,0,"(49.6957, 7.8387, 310)",RP,Bayerfeld-Steckweiler -Schmalfelderhof ,49.6957,7.8387
D0320,8.450905000730367,6.359785823814425,19.61052044686004,0.4048887103178443,0.32145502536644,0,"(49.9667, 11.5197, 350)",BY,Heinersreuth-Vollhof,49.9667,11.5197
D0330,7.995654927232554,6.07948062935805,19.84933136323065,0.5836701645043388,0.1999999999999318,0,"(49.5617, 8.9673, 450)",HE,Oberzent-Beerfelden,49.5617,8.9673
D0336,0.5033222956847166,0.4,0.5773502691896278,0.5122942240014101,0.2309401076758946,0,"(51.0221, 10.5148, 290)",TH,Hörselberg-Hainich-Behringen,51.0221,10.5148
D0342,7.3928967560219325,5.728989770376624,17.7725727091337,0.4218060518533333,10.204218928687848,0,"(52.317, 8.1694, 103)",NI,Belm,52.317,8.1694
D0357,0.62449979983984,0.5131601439446883,0.5773502691896247,0.5285468988417283,0.3511884584284478,0,"(52.3018, 7.1301, 50)",NI,"Bentheim, Bad",52.3018,7.1301
D0359,0.3055050463303893,0.1527525231651945,1.0,0.4721129678330937,0.1527525231651735,0,"(49.1023, 11.7958, 463)",BY,Beratzhausen,49.1023,11.7958
D0360,0.1732050807568877,0.1732050807568877,0.0,0.5156988994841507,0.0999999999999943,0,"(49.1115, 11.4328, 403)",BY,Berching,49.1115,11.4328
D0377,8.001195412548546,5.921693615457156,19.3723783903564,0.5001028921974666,0.2999999999999687,0,"(49.107, 7.9967, 210)",RP,"Bergzabern, Bad",49.107,7.9967
D0378,0.1732050807568876,0.1154700538379251,1.5275252316519452,0.4001904800348188,0.351188458428464,0,"(51.6843, 10.1077, 136)",NI,Berka,51.6843,10.1077
D0389,0.1154700538379252,0.1154700538379251,0.0,0.4275403818450023,0.1527525231651363,0,"(51.0148, 8.4318, 436)",NW,"Berleburg, Bad-Arfeld",51.0148,8.4318
D0390,7.722081811251906,5.917261076592884,19.39798774154291,0.5131933374257972,0.1527525231651363,0,"(50.9837, 8.3683, 610)",NW,"Berleburg, Bad-Stünzel",50.9837,8.3683
D0400,8.188247361637032,6.263692436845495,19.882368435392657,0.5222571543031428,0.3605551275464296,0,"(52.6309, 13.5022, 60)",BE,Berlin-Buch,52.6309,13.5022
D0420,8.19067579389468,6.236873334942492,19.215975732612364,0.4144440110450726,0.3785938897199467,0,"(52.5447, 13.5598, 60)",BE,Berlin-Marzahn,52.5447,13.5598
D0445,8.361088801323989,5.866414759551705,19.688654727175468,0.5343646296328813,0.2081665999465855,0,"(51.8218, 11.7109, 84)",ST,Bernburg / Saale (Nord),51.8218,11.7109
D0479,0.5,0.5033222956847166,0.5773502691896247,0.5423390949050632,0.1732050807568697,0,"(50.2435, 9.2893, 138)",HE,Wächtersbach,50.2435,9.2893
D0498,0.1732050807568877,0.1732050807568877,1.1547005383792497,0.5123183806450331,0.115470053837935,0,"(47.7453, 8.3111, 760)",BW,Ühlingen-Birkendorf,47.7453,8.3111
D0504,0.2081665999466133,0.1527525231651946,0.5773502691896247,0.429648790169353,0.2645751311064655,0,"(51.7981, 13.9718, 78)",BB,"Bischdorf, Kreis Oberspreewald",51.7981,13.9718
D0510,0.2121320343559642,0.0,1.4142135623730951,0.0,0.070710678118711,0,"(48.8059, 9.5046, 241)",BW,Winterbach/Remstal,48.8059,9.5046
D0535,7.64993597166049,5.782600035244872,19.04903645974377,0.4802742800662457,0.2516611478423553,0,"(50.0372, 7.3079, 417)",RP,Blankenrath,50.0372,7.3079
D0542,0.1527525231651946,0.0999999999999999,0.5773502691896247,0.4140014408412227,0.2999999999999687,0,"(53.2401, 10.8522, 12)",NI,Bleckede-Walmsburg,53.2401,10.8522
D0550,0.6506407098647712,0.6,0.5773502691896247,0.4250832846633271,0.2999999999999687,0,"(50.9041, 11.7985, 344)",TH,Bobeck,50.9041,11.7985
D0551,0.2081665999466132,0.0577350269189626,1.5275252316519452,0.4176203117840516,0.4041451884327561,0,"(50.3887, 11.9955, 517)",SN,Weischlitz-Heinersgrün,50.3887,11.9955
D0561,0.1,0.1527525231651946,1.7320508075688772,0.3916939975214477,0.3055050463304526,0,"(53.367, 7.9679, 11)",NI,Bockhorn-Grabstede,53.367,7.9679
D0567,0.3055050463303893,0.1732050807568877,3.0,0.5524034490240314,0.3055050463304526,0,"(51.6957, 9.5135, 258)",NI,Bodenfelde-Amelith,51.6957,9.5135
D0589,0.1999999999999998,0.2000000000000001,0.0,0.4169474493759946,0.3605551275463705,0,"(48.8848, 12.7451, 345)",BY,Bogen-Pfelling,48.8848,12.7451
D0613,0.2516611478423582,0.1,1.5275252316519452,0.401008668788636,0.2516611478423553,0,"(51.5677, 9.2324, 206)",NW,Borgentreich,51.5677,9.2324
D0617,7.430421436311427,5.706889192576898,18.759896789996898,0.4903924454196843,0.2000000000000454,0,"(51.873, 6.8863, 47)",NW,Borken in Westfalen,51.873,6.8863
D0622,0.0577350269189625,0.0577350269189625,0.0,0.3806081435188067,0.2516611478423553,0,"(52.3745, 11.4655, 66)",ST,Born,52.3745,11.4655
D0630,0.1527525231651947,0.0999999999999999,0.5773502691896247,0.525570747251108,0.2645751311064977,0,"(52.0194, 11.4055, 83)",ST,Bottmersdorf-Klein Germersleben,52.0194,11.4055
D0633,0.0577350269189625,0.0999999999999999,0.5773502691896278,0.4028720059774665,0.2645751311064011,0,"(51.4041, 14.5682, 125)",SN,Boxberg,51.4041,14.5682
D0644,0.2,0.1154700538379251,0.5773502691896247,0.4808451706586497,0.2516611478424061,0,"(51.7049, 9.1738, 150)",NW,Brakel,51.7049,9.1738
D0653,0.1732050807568876,0.2645751311064592,1.5275252316519483,0.6841316039585771,0.208166599946606,0,"(47.7241, 12.1092, 483)",BY,Brannenburg-Degerndorf,47.7241,12.1092
D0656,7.738050782401003,6.173429203278032,18.786464354307597,0.5362436523576644,9.611659426940186,0,"(51.7234, 10.6021, 607)",NI,Braunlage,51.7234,10.6021
D0684,0.2309401076758505,0.2886751345948127,0.5773502691896247,0.6235250577559523,0.115470053837935,0,"(47.9385, 8.0761, 1001)",BW,Breitnau,47.9385,8.0761
D0704,7.239901619795341,5.755674342756696,17.548385893541017,0.4016353853561709,10.418323184943912,1,"(53.4451, 9.139, 11)",NI,Bremervörde,53.4451,9.139
D0714,0.1527525231651946,0.1527525231651946,0.0,0.5612066439704333,0.3605551275464296,0,"(52.3653, 14.2474, 46)",BB,Neu Madlitz,52.3653,14.2474
D0721,0.3605551275463989,0.3605551275463989,0.0,0.3848353833026177,0.23094010767587,0,"(51.5168, 12.4356, 101)",SN,Schönwölkau-Brinnis,51.5168,12.4356
D0723,0.2081665999466133,0.2081665999466133,0.5773502691896247,0.4540818189224566,0.2000000000000312,0,"(50.1841, 7.24, 290)",RP,Kail,50.1841,7.24
D0731,0.3605551275463989,0.2516611478423583,1.7320508075688772,0.4781173086303425,0.2516611478424061,0,"(49.1127, 8.6372, 130)",BW,Bruchsal-Heidelsheim,49.1127,8.6372
D0735,0.1527525231651946,0.1527525231651947,0.0,0.4679323798046025,0.2645751311064655,0,"(52.1692, 12.7334, 52)",BB,Brück-Gömnigk,52.1692,12.7334
D0753,0.404145188432738,0.404145188432738,0.0,0.385739703875074,0.208166599946606,0,"(50.87, 11.5022, 310)",TH,Bucha,50.87,11.5022
D0755,8.341840670198653,6.172014442596384,19.909840935128628,0.5358305576509994,0.1527525231651425,0,"(49.5182, 9.3213, 340)",BW,"Buchen, Kr. Neckar-Odenwald",49.5182,9.3213
D0757,7.869342263538551,6.299974475918731,17.563638648968,0.5846098540484975,0.115470053837935,0,"(47.9625, 7.9983, 445)",BW,Buchenbach,47.9625,7.9983
D0760,7.32848996852735,5.922343206624672,17.254714850836507,0.4589078051201485,0.3055050463304526,0,"(53.3629, 9.9435, 82)",NI,Rosengarten-Klecken,53.3629,9.9435
D0775,0.2309401076758504,0.3511884584284246,1.1547005383792526,0.466788142816766,0.351188458428348,0,"(52.0, 10.6323, 100)",ST,Osterwieck-Rimbeck,52.0,10.6323
D0789,0.3605551275463988,0.3785938897200182,0.5773502691896247,0.5112943571845836,0.1527525231651363,0,"(49.6064, 9.8835, 263)",BY,Bütthard,49.6064,9.8835
D0791,0.1154700538379251,0.1999999999999999,0.5773502691896247,0.5068317497990718,0.5,0,"(54.6328, 8.937, 8)",SH,Bordelum,54.6328,8.937
D0796,0.3000000000000001,0.4041451884327378,0.5773502691896247,0.4443906656528578,0.2081665999465855,0,"(50.7556, 8.1257, 412)",NW,Burbach-Würgendorf,50.7556,8.1257
D0797,0.4509249752822894,0.4,0.5773502691896247,0.3655737025406714,0.3055050463304526,0,"(52.3198, 11.8331, 39)",ST,Burg-Blumenthal,52.3198,11.8331
D0808,0.1527525231651945,0.1154700538379252,0.5773502691896247,0.5370264851666513,0.2516611478424061,0,"(48.1869, 12.8098, 411)",BY,"Mehring, Kr. Altötting-Niederholz",48.1869,12.8098
D0812,0.1527525231651947,0.1527525231651947,0.0,0.4072719459718626,0.32145502536644,0,"(50.1427, 11.2322, 276)",BY,Burgkunstadt,50.1427,11.2322
D0815,0.1,0.0577350269189625,0.5773502691896278,0.3439309472843907,0.2645751311064977,0,"(51.5427, 11.6948, 154)",ST,Seegebiet Mansfelder Land-Dederstedt,51.5427,11.6948
D0817,8.115368979979724,6.053550590539274,19.50403606951515,0.5099764136841352,0.2309401076758043,0,"(51.0306, 8.8146, 293)",HE,Burgwald-Bottendorf,51.0306,8.8146
D0837,0.3214550253664318,0.2645751311064591,0.5773502691896247,0.3646895128013261,0.2516611478423553,0,"(50.2863, 8.2949, 244)",HE,"Camberg, Bad",50.2863,8.2949
D0839,0.0577350269189623,0.1,0.5773502691896278,0.4330919605280248,0.3511884584284748,0,"(53.7575, 10.9288, 27)",MV,Carlow,53.7575,10.9288
D0848,0.4509249752822893,0.5,0.5773502691896247,0.3637428878845377,0.3511884584284154,0,"(52.6146, 10.0726, 38)",NI,Celle (Stadt),52.6146,10.0726
D0853,8.13072326736815,6.361612949325694,18.08410560386013,0.4076731701543866,9.161058235211652,1,"(50.7913, 12.872, 418)",SN,Chemnitz,50.7913,12.872
D0857,0.1732050807568879,0.4041451884327383,1.5275252316519452,0.6880434443099606,0.3055050463304526,0,"(47.8677, 12.3949, 536)",BY,Chiemsee-Herrenchiemsee,47.8677,12.3949
D0867,8.236025531364126,6.216603420759499,19.29251963257097,0.3750534907667412,9.170437051230753,0,"(50.3066, 10.9679, 344)",BY,Lautertal-Oberlauter,50.3066,10.9679
D0871,0.0577350269189624,0.0577350269189628,0.5773502691896247,0.4721416289399007,0.2516611478423553,0,"(51.9618, 7.1585, 87)",NW,Coesfeld,51.9618,7.1585
D0874,0.3511884584284246,0.3511884584284246,0.0,0.3798598878295557,0.3055050463304526,0,"(52.2994, 11.6733, 52)",ST,Zielitz,52.2994,11.6733
D0885,0.3,0.1527525231651946,1.7320508075688772,0.4175441694363067,0.1527525231651673,0,"(49.8449, 11.616, 450)",BY,Creußen-Bühl,49.8449,11.616
D0896,8.366758361602507,6.116792924904628,18.456770900941898,0.4705667442038821,0.2081665999465855,0,"(51.0778, 10.8619, 170)",TH,Dachwig,51.0778,10.8619
D0917,8.197927350153854,6.1406528477167015,20.22292049805736,0.4441650079065514,0.1527525231651363,0,"(49.8809, 8.6779, 162)",HE,Darmstadt,49.8809,8.6779
D0931,0.3785938897200183,0.2081665999466131,1.1547005383792497,0.5078367884937849,0.115470053837935,0,"(47.8007, 9.4108, 708)",BW,Deggenhausertal-Azenweiler,47.8007,9.4108
D0934,0.1527525231651944,0.1999999999999999,0.5773502691896247,0.5200917058335609,0.1999999999999744,0,"(51.7835, 8.5658, 88)",NW,Delbrück,51.7835,8.5658
D0942,0.4163331998932263,0.4163331998932262,0.0,0.542370493187304,0.1154700538379596,0,"(50.122, 6.599, 308)",RP,Densborn,50.122,6.599
D0961,0.2,0.0577350269189625,1.0,0.5026373399444813,0.2081665999465855,0,"(51.4743, 9.0039, 258)",HE,Diemelstadt-Rhoden,51.4743,9.0039
D0962,0.2309401076758503,0.0577350269189625,1.7320508075688772,0.3334563183970457,0.2516611478424061,0,"(50.8018, 11.1692, 326)",TH,Stadtilm-Dienstedt,50.8018,11.1692
D0966,0.2309401076758502,0.1999999999999999,0.5773502691896247,0.3868867047468973,0.3605551275463705,0,"(52.7521, 10.883, 65)",ST,Diesdorf,52.7521,10.883
D0970,0.1527525231651947,0.2516611478423583,0.5773502691896247,0.7066962042603643,0.0,0,"(49.4158, 10.6734, 405)",BY,Dietenhofen,49.4158,10.6734
D0974,0.3000000000000002,0.3055050463303896,0.5773502691896247,0.3339195695371776,0.1732050807568697,0,"(51.5307, 11.0457, 440)",ST,Südharz-Dietersdorf,51.5307,11.0457
D0978,0.0999999999999999,0.1,0.0,0.3753026781060293,0.1527525231651363,0,"(50.3574, 8.0485, 155)",RP,Holzheim bei Diez,50.3574,8.0485
D0979,8.116927488910116,5.972389382799388,20.437345327110016,0.4409720115164781,0.2645751311064977,0,"(50.7364, 8.2672, 314)",HE,Dillenburg,50.7364,8.2672
D0983,8.232004255382924,6.416585707046157,18.885744061346763,0.3989569012053512,0.0999999999999232,0,"(48.5562, 10.5599, 419)",BY,Dillingen/Donau-Fristingen,48.5562,10.5599
D0985,0.3,0.2309401076758502,1.0,0.4904495299833484,0.0999999999999516,0,"(49.0504, 10.2892, 491)",BY,Dinkelsbühl-Oberwinstetten,49.0504,10.2892
D0988,0.4163331998932266,0.4163331998932266,0.0,0.5387587602504604,0.3605551275463705,0,"(52.6747, 8.1138, 25)",NI,Dinklage,52.6747,8.1138
D0989,0.2516611478423583,0.0999999999999999,1.0,0.4305782263983533,0.2081665999465855,0,"(51.5765, 6.7849, 53)",NW,Dinslaken,51.5765,6.7849
D0991,8.331590892157292,6.559323643259621,18.143106351180588,0.4790108187463606,0.351188458428348,0,"(50.9117, 13.7087, 365)",SN,Dippoldiswalde-Reinberg,50.9117,13.7087
D1014,0.2000000000000001,0.1527525231651947,0.5773502691896247,0.4108138873588977,0.2516611478423553,0,"(53.2289, 7.2191, 2)",NI,Dollart-Kanalpolder,53.2289,7.2191
D1024,0.3785938897200182,0.3785938897200183,0.0,0.466078446121444,0.1527525231651922,0,"(51.1157, 6.851, 37)",NW,Dormagen-Zons,51.1157,6.851
D1030,0.1527525231651949,0.1527525231651946,1.0,0.426725272140338,0.3511884584284478,0,"(53.646, 7.4302, 1)",NI,Dornum,53.646,7.4302
D1039,0.2309401076758503,0.0577350269189625,1.7320508075688772,0.3899130595437237,0.3055050463303533,0,"(51.5263, 9.7978, 317)",NI,Dransfeld-Ossenfeld,51.5263,9.7978
D1046,0.0577350269189624,0.115470053837925,1.1547005383792526,0.4618424246320107,0.2516611478423553,0,"(51.7585, 7.7528, 72)",NW,Drensteinfurt,51.7585,7.7528
D1050,8.23346562780194,6.448094269942818,17.990432856845185,0.4529135937722888,0.2999999999999545,0,"(51.0221, 13.847, 114)",SN,Dresden-Hosterwitz,51.0221,13.847
D1051,8.413176875342959,6.412056614540177,18.54774019179132,0.4222387661781441,0.2999999999999545,0,"(51.0248, 13.775, 120)",SN,Dresden-Strehlen,51.0248,13.775
D1052,8.27386790327674,6.050914436069066,19.96460726732731,0.4153004635886444,0.3214550253663885,0,"(52.2174, 12.1641, 80)",ST,Drewitz bei Burg,52.2174,12.1641
D1055,0.3464101615137754,0.4041451884327378,0.5773502691896278,0.5039380814687221,0.3055050463304091,0,"(50.6316, 8.1813, 482)",HE,Driedorf,50.6316,8.1813
D1056,0.1732050807568877,0.1732050807568876,0.0,0.4136496422246676,0.2999999999999687,0,"(53.7118, 9.3791, 1)",NI,Drochtersen,53.7118,9.3791
D1067,0.3464101615137755,0.3785938897200183,0.5773502691896278,0.3547412986918368,0.2645751311064977,0,"(51.9265, 12.3856, 95)",ST,Düben,51.9265,12.3856
D1089,0.2,0.3055050463303893,0.5773502691896247,0.5057526957922815,0.0577350269189346,0,"(48.5017, 7.9943, 196)",BW,Durbach-Ebersweier,48.5017,7.9943
D1103,8.122412007770341,6.720498158562543,18.01441042638042,0.5833128494425365,0.2516611478423553,0,"(48.1002, 11.9872, 592)",BY,Ebersberg-Halbing,48.1002,11.9872
D1107,8.235803471465506,6.375174682588956,20.31522185571304,0.5491328531007037,0.2516611478423553,0,"(49.852, 10.499, 346)",BY,Ebrach,49.852,10.499
D1161,8.505646554065914,6.53700793123128,20.005206669295543,0.4838384612588217,0.1732050807568697,0,"(48.8777, 11.2349, 384)",BY,Eichstätt-Landershofen,48.8777,11.2349
D1166,0.264575131106459,0.2886751345948129,0.5773502691896247,0.3221212213893425,0.2081665999465855,0,"(51.4601, 12.6692, 105)",SN,Eilenburg,51.4601,12.6692
D1170,0.1154700538379252,0.1527525231651946,1.1547005383792526,0.4218505584735948,0.3055050463303533,0,"(51.8873, 9.728, 265)",NI,Eimen-Vorwohle,51.8873,9.728
D1176,0.2081665999466134,0.2081665999466132,0.5773502691896247,0.6090765890335427,0.1527525231651922,0,"(47.9634, 8.2693, 976)",BW,Eisenbach,47.9634,8.2693
D1197,8.355146653481766,6.299129927309664,19.90672160107412,0.4549509051393367,0.0577350269189921,0,"(48.9895, 10.1312, 460)",BW,Ellwangen-Rindelbach,48.9895,10.1312
D1207,8.198383184778477,6.366760578314007,18.836355980061512,0.5834502317609701,0.3055050463304526,0,"(50.2705, 12.2742, 560)",SN,"Elster, Bad-Sohl",50.2705,12.2742
D1210,1.2342339054382412,1.1789826122551597,0.5773502691896278,0.3983093544459907,0.2516611478423553,0,"(51.4505, 13.5046, 90)",BB,Elsterwerda,51.4505,13.5046
D1214,8.021121110472704,6.071338815727113,19.31398620142071,0.6531236611632256,0.1154700538379021,0,"(48.2012, 8.1089, 440)",BW,Elzach-Fisnacht,48.2012,8.1089
D1216,0.3785938897200183,0.4358898943540673,0.5773502691896278,0.4617896807830055,0.1999999999999744,0,"(49.4251, 9.243, 312)",BW,Elztal-Rittersbach,49.4251,9.243
D1223,0.3511884584284246,0.3511884584284246,0.0,0.4776110249541105,0.2516611478423063,0,"(52.5983, 6.9449, 13)",NI,Ringe-Großringe,52.5983,6.9449
D1224,8.206006628646895,6.169119799653783,20.04492105591664,0.4971415051599889,0.1154700538379021,0,"(48.1378, 7.8351, 201)",BW,Emmendingen-Mundingen,48.1378,7.8351
D1237,0.3055050463303896,0.0577350269189623,2.081665999466134,0.5699844812551718,0.32145502536644,0,"(48.0891, 12.5071, 508)",BY,Tacherting-Spreit,48.0891,12.5071
D1241,0.0577350269189626,0.0999999999999999,0.5773502691896247,0.4106869707871541,0.2516611478423553,0,"(52.15, 8.5226, 128)",NW,Enger,52.15,8.5226
D1246,7.485338574085376,5.745562377571174,17.88607837919107,0.4792265136769507,0.2000000000000312,0,"(51.8418, 8.0607, 104)",NW,Ennigerloh-Ostenfelde,51.8418,8.0607
D1262,8.290978070320769,6.583608850305465,18.658284116675247,0.516814574182271,8.777145411471583,0,"(48.3477, 11.8133, 446)",BY,München-Flughafen,48.3477,11.8133
D1266,6.8151913301667815,5.724088735858685,15.351956820706864,0.4469212543779208,0.5,1,"(54.2992, 9.3162, 18)",SH,Erfde,54.2992,9.3162
D1278,0.5,0.3,1.0,0.3766554341985846,0.3055050463304526,0,"(52.2449, 10.7182, 160)",NI,Cremlingen-Destedt,52.2449,10.7182
D1279,8.530561196173247,6.433667028735671,20.831231518047257,0.505364061522028,0.1154700538378447,0,"(49.6497, 11.0074, 268)",BY,Möhrendorf-Kleinseebach,49.6497,11.0074
D1282,0.0,0.1527525231651945,1.0,0.6587685642118497,0.3605551275464296,0,"(50.3043, 12.3834, 565)",SN,Erlbach-Eubabrunn,50.3043,12.3834
D1290,0.0577350269189625,0.0577350269189625,0.5773502691896278,0.6266971932407045,0.1000000000000511,0,"(48.1868, 8.4672, 714)",BW,Eschbronn-Mariazell,48.1868,8.4672
D1297,7.924011618945201,6.018222516886147,18.559072067079057,0.3733619365455997,0.208166599946606,0,"(51.2041, 10.0138, 156)",HE,Eschwege,51.2041,10.0138
D1300,7.6172616643007665,6.033288676464732,17.862001598236837,0.4889278199506633,0.1527525231652697,0,"(51.254, 8.1565, 351)",NW,Eslohe,51.254,8.1565
D1304,0.1154700538379252,0.0577350269189626,0.5773502691896247,0.5819875737001312,0.2516611478424061,0,"(52.3345, 8.3877, 48)",NI,"Essen-Brockhausen, Bad",52.3345,8.3877
D1320,0.6506407098647712,0.6027713773341709,0.5773502691896247,0.3366982416270733,0.23094010767587,0,"(51.261, 11.1754, 137)",TH,Etzleben,51.261,11.1754
D1327,7.63390716916039,5.580482675119928,18.69254525242616,0.4229123082893554,0.1732050807568943,0,"(50.7119, 6.7905, 147)",NW,Weilerswist-Lommersum,50.7119,6.7905
D1332,8.376421562958134,6.582964568654541,18.891319960435265,0.4637197806072027,0.1154700538378447,0,"(48.4832, 12.7241, 472)",BY,"Falkenberg,Kr.Rottal-Inn",48.4832,12.7241
D1336,0.2645751311064591,0.2081665999466132,0.5773502691896278,0.3854323489349864,0.3511884584284478,0,"(52.8568, 9.6756, 70)",NI,"Fallingbostel, Bad",52.8568,9.6756
D1350,0.2309401076758503,0.2309401076758503,0.0,0.3994795309237937,0.32145502536644,0,"(52.0997, 13.0016, 48)",BB,Felgentreu,52.0997,13.0016
D1357,8.171990241670523,6.396336970087233,18.079683688472212,0.5659067867447207,0.32145502536644,0,"(49.9807, 11.8376, 654)",BY,Fichtelberg/Oberfranken-Hüttstadl,49.9807,11.8376
D1392,0.2081665999466133,0.1732050807568875,0.5773502691896247,0.5181568861501552,0.1732050807569599,0,"(49.7317, 12.3491, 622)",BY,Flossenbürg,49.7317,12.3491
D1411,7.920097316478778,6.175608746255118,19.200185715627995,0.5135632776345491,0.2081665999465855,0,"(50.5309, 10.048, 745)",TH,Birx,50.5309,10.048
D1424,8.017456807086484,5.945122556363782,19.90710780845764,0.4879438530409263,0.1999999999999318,0,"(50.1269, 8.6694, 124)",HE,Frankfurt  Westend,50.1269,8.6694
D1435,0.0577350269189623,0.1154700538379252,0.5773502691896247,0.5379276904754272,0.2516611478423553,0,"(50.5921, 10.8575, 768)",TH,Frauenwald,50.5921,10.8575
D1441,0.6027713773341707,0.3605551275463989,1.5275252316519452,0.4441433818324336,0.3511884584284721,0,"(50.9263, 13.2711, 416)",SN,Freiberg,50.9263,13.2711
D1451,7.029982246071691,5.708857345823145,16.067832149131167,0.4140467068626653,0.3000000000000256,1,"(53.8277, 9.2493, 2)",NI,Freiburg/Elbe,53.8277,9.2493
D1458,0.2645751311064592,0.1527525231651946,0.5773502691896247,0.4578711712346942,0.1732050807568697,0,"(49.5747, 11.886, 493)",BY,Freihung-Großschönbrunn,49.5747,11.886
D1495,0.1,0.1,0.0,0.4261434948662049,0.3055050463303844,0,"(53.5389, 11.7607, 52)",MV,Goldenbow,53.5389,11.7607
D1497,0.2645751311064591,0.2309401076758503,0.5773502691896247,0.4908530919398318,0.4041451884327303,0,"(53.0238, 13.7088, 75)",BB,Friedrichswalde,53.0238,13.7088
D1503,7.076105099279628,5.714485161940866,16.923540680459293,0.439847214750939,10.461831573346885,1,"(53.0643, 7.9022, 6)",NI,Friesoythe-Altenoythe,53.0643,7.9022
D1526,8.171653890221283,6.172193522528869,19.759989421497863,0.4242355357606557,0.2081665999465855,0,"(50.5668, 9.6533, 242)",HE,Fulda-Horas,50.5668,9.6533
D1561,0.4509249752822894,0.6027713773341709,1.0,0.4801615872745411,0.115470053837935,0,"(50.404, 9.2075, 407)",HE,Gedern-Schönhausen,50.404,9.2075
D1573,0.9451631252505218,0.9451631252505216,0.0,0.4876291280065813,0.2081665999465855,0,"(50.7134, 9.9539, 280)",TH,Geisa,50.7134,9.9539
D1578,0.4358898943540673,0.378593889720018,0.5773502691896247,0.3644218736782057,0.1527525231651983,0,"(48.6516, 11.5845, 395)",BY,Geisenfeld-Eichelberg,48.6516,11.5845
D1584,8.304312893468175,6.162478427233261,19.776543973185248,0.5041716814362419,0.115470053837935,0,"(47.9242, 8.6473, 672)",BW,Geisingen,47.9242,8.6473
D1590,7.444255443715759,5.590499410112466,18.798674895302277,0.442491156663254,0.1527525231652169,0,"(51.4942, 6.2463, 37)",NW,Geldern-Walbeck,51.4942,6.2463
D1595,0.1732050807568879,0.1154700538379251,1.0,0.4478640109503742,0.2000000000000454,0,"(51.5762, 7.0652, 91)",NW,Gelsenkirchen-Buer,51.5762,7.0652
D1598,0.321455025366432,0.3214550253664317,0.0,0.4163441140134323,0.1999999999999318,0,"(50.248, 7.7456, 328)",RP,Oberbachheim,50.248,7.7456
D1602,8.153832311705226,6.045472179643222,19.3190176366084,0.6250723672854567,0.0577350269189921,0,"(48.4329, 7.9931, 176)",BW,Ohlsbach,48.4329,7.9931
D1639,8.010252576972633,5.923973562224712,19.363949743492856,0.6169632093430092,9.466027106920798,0,"(50.6017, 8.6439, 203)",HE,Gießen/Wettenberg,50.6017,8.6439
D1645,7.930763330599152,6.1408366605329245,18.963254405340265,0.3994269581008461,0.1527525231651363,0,"(50.9656, 9.05, 340)",HE,Gilserberg-Moischeid,50.9656,9.05
D1650,0.4,0.4509249752822893,0.5773502691896278,0.5513034384835762,0.2516611478423553,0,"(49.4648, 7.4111, 250)",RP,Henschtal,49.4648,7.4111
D1666,0.3535533905932738,0.3535533905932738,0.0,0.0,0.2828427124746431,0,"(54.8273, 9.5058, 12)",SH,Glücksburg-Meierwik,54.8273,9.5058
D1669,0.0577350269189626,0.0,0.5773502691896247,0.4058174474451183,0.2516611478423553,0,"(53.808, 12.9608, 43)",MV,Borrentin-Wolkwitz,53.808,12.9608
D1689,0.1,0.1,0.0,0.4871670681532769,0.2081665999466378,0,"(49.7656, 11.3061, 443)",BY,Gößweinstein,49.7656,11.3061
D1711,0.0577350269189625,0.0999999999999999,0.5773502691896247,0.5132629599749511,0.0999999999999516,0,"(47.7344, 8.7932, 438)",BW,Gottmadingen,47.7344,8.7932
D1717,0.0577350269189626,0.0,0.5773502691896247,0.3743532163773275,0.3000000000000256,0,"(53.2651, 11.5042, 28)",MV,Grabow (Kläranlage Fahlenkamp),53.2651,11.5042
D1721,8.216580120087777,6.236150794383905,20.109288855973908,0.5158555763270283,0.1527525231651673,0,"(49.664, 11.2239, 506)",BY,Gräfenberg-Kasberg,49.664,11.2239
D1735,8.344271902272112,6.866309991783333,19.11223921980817,0.5646968671409093,0.3214550253663885,0,"(48.7893, 13.6291, 628)",BY,Grainet-Rehberg,48.7893,13.6291
D1736,7.6126258038540096,5.983025349963024,18.086002304558967,0.4313340857156739,0.351188458428348,1,"(53.5731, 10.6797, 27)",SH,Grambek,53.5731,10.6797
D1744,0.4358898943540673,0.5507570547286104,1.0,0.3621055125276571,0.23094010767587,0,"(51.5718, 14.4764, 139)",BB,Graustein,51.5718,14.4764
D1750,0.5507570547286103,0.1154700538379251,4.0,0.4493136989499211,0.2645751311064011,0,"(51.4498, 9.4131, 190)",HE,Grebenstein,51.4498,9.4131
D1769,0.1527525231651947,0.1527525231651948,0.0,0.5319756740608848,0.3511884584284748,0,"(53.8312, 11.1713, 25)",MV,Grevesmühlen,53.8312,11.1713
D1770,0.3511884584284246,0.2516611478423584,0.5773502691896278,0.2806712970735673,0.32145502536644,0,"(52.4233, 11.966, 38)",ST,Grieben,52.4233,11.966
D1792,5.701718568622384,4.3383431253546645,12.167873531180328,0.40566700843942,0.2645751311064977,1,"(52.7553, 7.4815, 27)",NI,Groß Berßen,52.7553,7.4815
D1793,0.3785938897200182,0.3214550253664318,0.5773502691896247,0.426860626689385,0.2081665999465855,0,"(51.8806, 11.465, 104)",ST,Hecklingen-Groß Börnecke,51.8806,11.465
D1801,0.1527525231651946,0.2081665999466132,1.1547005383792526,0.3299630028347189,0.32145502536644,0,"(52.4042, 12.7923, 31)",BB,Groß Kreutz,52.4042,12.7923
D1803,7.363254025310732,6.014156742190604,16.36939085795394,0.4424861594018086,0.4041451884327561,1,"(54.0714, 12.3238, 34)",MV,Groß Lüsewitz,54.0714,12.3238
D1810,0.2645751311064591,0.2645751311064591,0.0,0.4329091885836286,0.4041451884327303,0,"(52.9094, 13.5371, 56)",BB,Schorfheide-Groß Schönebeck,52.9094,13.5371
D1813,0.0577350269189626,0.0577350269189626,0.0,0.4579608043244104,0.4509249752823205,0,"(54.4032, 9.7654, 15)",SH,Groß Wittensee,54.4032,9.7654
D1814,0.4509249752822894,0.404145188432738,0.5773502691896278,0.3740433061801436,0.1999999999999318,0,"(49.9052, 8.4459, 87)",HE,Groß-Gerau-Wallerstädten,49.9052,8.4459
D1827,0.1,0.1154700538379251,0.5773502691896278,0.3621841420682324,0.4509249752822648,0,"(54.3726, 11.0828, 3)",SH,Großenbrode,54.3726,11.0828
D1844,0.3055050463303896,0.1527525231651948,1.1547005383792526,0.7113763865616184,0.2000000000000312,0,"(47.9411, 11.9004, 517)",BY,Feldkirchen-Westerham-Lenzmühle,47.9411,11.9004
D1847,0.3055050463303894,0.3055050463303893,0.0,0.4205105192811713,0.2081665999465855,0,"(51.2743, 12.0517, 92)",ST,Weißenfels-Wengelsdorf,51.2743,12.0517
D1848,0.3511884584284246,0.3511884584284246,0.0,0.336055513137861,0.2081665999465855,0,"(51.309, 12.1718, 118)",SN,Markranstädt-Großlehna,51.309,12.1718
D1863,8.023482391930402,6.097269316569576,20.352426447476304,0.5399870717639174,0.1732050807568697,0,"(50.2667, 9.1854, 258)",HE,Gründau-Breitenborn,50.2667,9.1854
D1870,0.6429100507328637,0.4509249752822894,1.5275252316519483,0.484901670337544,0.2081665999465422,0,"(49.5665, 8.178, 160)",RP,Grünstadt,49.5665,8.178
D1888,0.0577350269189626,0.2000000000000001,1.0,0.3601064854091631,0.4509249752822648,0,"(53.8119, 12.114, 10)",MV,Parum,53.8119,12.114
D1937,0.0577350269189625,0.1,0.5773502691896278,0.5269354935587668,0.1527525231651735,0,"(48.3705, 8.7666, 524)",BW,Haigerloch-Weildorf,48.3705,8.7666
D1964,7.643613682487467,5.732046825494319,19.12381660485212,0.4600000100970747,0.1999999999999744,0,"(49.9445, 6.3821, 328)",RP,Olsdorf,49.9445,6.3821
D1981,7.417963132505855,5.868915174475274,17.47490008594396,0.438170171047082,0.3605551275463705,0,"(53.4777, 9.8957, 3)",HH,Hamburg-Neuwiedenthal,53.4777,9.8957
D2011,4.969211126620895,5.245501321009236,10.388094795319672,0.410600942941587,0.2999999999999687,1,"(52.3965, 9.6629, 50)",NI,Hannover-Herrenhausen,52.3965,9.6629
D2012,7.26464462055595,5.78403728404457,17.77231390545573,0.5175954341414299,9.59019373589739,0,"(52.3671, 9.819, 57)",NI,Hannover-Kirchrode,52.3671,9.819
D2027,0.0,0.0577350269189625,0.5773502691896278,0.3871303035409304,0.2516611478424061,0,"(51.9753, 8.2094, 63)",NW,Harsewinkel,51.9753,8.2094
D2039,7.807222732020171,6.076490997399233,16.714373391855116,0.4230317861102269,0.3000000000000682,0,"(51.9002, 10.5699, 201)",NI,"Harzburg, Bad",51.9002,10.5699
D2050,0.0999999999999999,0.0577350269189625,1.0,0.5457559403315366,0.0577350269190249,0,"(48.2766, 8.0842, 220)",BW,Haslach im Kinzigtal,48.2766,8.0842
D2064,0.0999999999999999,0.1527525231651947,0.5773502691896278,0.4860869460659651,0.1527525231651735,0,"(49.184, 10.8243, 449)",BY,Haundorf-Obererlbach,49.184,10.8243
D2066,0.5131601439446883,0.404145188432738,0.5773502691896247,0.4459369594135029,0.2081665999465855,0,"(50.7383, 9.6608, 257)",HE,Haunetal-Wehrda,50.7383,9.6608
D2074,8.12595545983306,6.402355385743105,18.48297155082869,0.5119951799023965,0.1000000000000511,0,"(48.3751, 8.9801, 522)",BW,Hechingen,48.3751,8.9801
D2109,0.7,0.6658328118479392,0.5773502691896247,0.563457416298715,0.1527525231651363,0,"(50.0664, 9.3458, 450)",BY,Heinrichsthal,50.0664,9.3458
D2110,7.777008079158668,5.985793084029892,18.44865650777289,0.6138543576205039,0.1999999999999744,0,"(51.0411, 6.1042, 57)",NW,Heinsberg-Schleiden,51.0411,6.1042
D2152,0.2516611478423583,0.2516611478423583,0.0,0.4578820472550612,0.2081665999466469,0,"(51.0423, 10.1469, 380)",HE,Herleshausen-Archfeld,51.0423,10.1469
D2159,0.1527525231651947,0.1,0.5773502691896278,0.5456403756678099,0.1527525231651922,0,"(48.5915, 8.8541, 430)",BW,Herrenberg,48.5915,8.8541
D2170,0.4041451884327383,0.4041451884327383,0.0,0.5636047527256374,0.1154700538379596,0,"(50.1499, 6.5527, 526)",RP,Weißenseifen,50.1499,6.5527
D2174,7.8561067892590835,5.952750559540293,18.75244957669118,0.4300149812336757,0.2645751311064011,0,"(51.6255, 10.3695, 238)",NI,Herzberg,51.6255,10.3695
D2175,0.3605551275463989,0.3214550253664317,0.5773502691896278,0.4717135501806617,0.2516611478423553,0,"(51.689, 10.357, 340)",NI,Herzberg-Lonau,51.689,10.357
D2184,0.1527525231651946,0.1,0.5773502691896247,0.4597380321270153,0.2516611478424061,0,"(51.2142, 9.6919, 340)",HE,Hessisch Lichtenau-Fürstenhagen,51.2142,9.6919
D2201,6.831575938794272,6.059058030348224,12.542745485081689,0.3632233760330723,0.3055050463304091,1,"(54.575, 13.1044, 1)",MV,Hiddensee-Vitte,54.575,13.1044
D2211,7.6857445793454815,5.816848830368558,20.08242703916252,0.4830724543332825,0.2081665999465855,1,"(50.7371, 7.6528, 295)",RP,Hilgenroth,50.7371,7.6528
D2213,0.4932882862316247,0.5686240703077325,0.5773502691896278,0.5740128402801311,0.1000000000000511,0,"(50.3105, 6.6236, 407)",RP,Lissendorf,50.3105,6.6236
D2233,0.3605551275463989,0.2516611478423582,0.5773502691896247,0.4289677220593784,0.3511884584284154,0,"(50.404, 11.8193, 446)",TH,Hirschberg,50.404,11.8193
D2252,8.322834100744158,6.584108313352226,17.478958800122683,0.4859140621203209,0.3511884584284478,0,"(50.899, 14.7457, 270)",SN,Bertsdorf-Hörnitz,50.899,14.7457
D2254,0.3511884584284246,0.2000000000000001,1.0,0.4053521835798126,0.2516611478423553,0,"(52.2396, 7.6449, 46)",NW,Hörstel-Riesenbeck,52.2396,7.6449
D2272,0.1527525231651946,0.3214550253664318,1.1547005383792526,0.4328007230078192,0.4582575694955456,0,"(53.7784, 11.5595, 43)",MV,Ventschow,53.7784,11.5595
D2274,0.0,0.0,0.0,0.5591811375092988,0.3055050463304526,0,"(50.092, 12.2132, 517)",BY,Hohenberg/Eger,50.092,12.2132
D2278,0.4509249752822895,0.4509249752822895,0.0,0.4275581001434562,0.208166599946606,0,"(51.764, 13.47, 131)",BB,Hohenbucko,51.764,13.47
D2292,0.2,0.0577350269189624,1.0,0.5942983193712444,0.1000000000000511,0,"(48.3551, 9.3356, 740)",BW,Hohenstein-Bernloch,48.3551,9.3356
D2293,0.3464101615137753,0.3055050463303893,0.5773502691896247,0.5097561790296034,0.1999999999999744,0,"(50.1919, 8.088, 315)",HE,Hohenstein-Breithardt,50.1919,8.088
D2294,0.264575131106459,0.1732050807568875,3.0,0.4467529270151436,0.1999999999999318,0,"(48.6573, 12.0888, 470)",BY,Hohenthann,48.6573,12.0888
D2306,6.682147157396957,5.820546394277803,13.78976113758327,0.3977108775385865,0.513160143944723,1,"(54.3194, 10.6732, 8)",SH,Hohwacht,54.3194,10.6732
D2315,0.4949747468305833,0.3535533905932738,0.7071067811865476,0.0,0.0707106781186306,0,"(51.7657, 13.1666, 81)",ST,Holzdorf (Flugplatz),51.7657,13.1666
D2319,8.327216943117254,6.5766190363388,18.99868209728626,0.6935004600259571,0.1527525231651363,0,"(47.8823, 11.6962, 685)",BY,Holzkirchen,47.8823,11.6962
D2323,7.7551683885340434,5.933364943998238,18.05140399133456,0.4342170344002101,0.3000000000000256,0,"(51.8529, 9.4953, 110)",NI,"Bevern, Kr. Holzminden",51.8529,9.4953
D2329,0.3511884584284246,0.2999999999999999,0.0,0.4450844620886764,0.2081665999465855,0,"(50.2446, 8.5725, 255)",HE,Bad Homburg (Filterwerk),50.2446,8.5725
D2331,0.3605551275463989,0.3511884584284245,0.5773502691896247,0.459041794433235,0.2081665999467152,0,"(49.3278, 7.3533, 235)",SL,Homburg/Saar,49.3278,7.3533
D2349,0.0707106781186545,0.2828427124746189,2.8284271247461903,0.0,0.0,0,"(48.6136, 8.2034, 1119)",BW,Hornisgrinde,48.6136,8.2034
D2355,0.0577350269189625,0.3214550253664318,1.7320508075688772,0.560737528987794,0.4000000000000199,0,"(53.1228, 8.4205, 4)",NI,Hude/Oldenburg,53.1228,8.4205
D2362,7.606669513867267,5.908077575601023,19.125143296152203,0.5162341138500072,0.2081665999465855,0,"(50.5651, 7.4843, 328)",RP,Hümmerich,50.5651,7.4843
D2372,0.1,0.1527525231651948,0.5773502691896278,0.4785933648735895,0.351188458428406,0,"(50.5466, 12.5706, 604)",SN,Stützengrün-Hundshübel,50.5466,12.5706
D2376,0.1527525231651946,0.2516611478423581,2.309401076758505,0.5136003649648393,0.4041451884327643,0,"(48.6549, 13.5078, 460)",BY,Büchlberg-Tannöd,48.6549,13.5078
D2387,0.1527525231651946,0.1527525231651945,0.0,0.5457734635065512,0.0577350269189921,0,"(48.0374, 10.7409, 626)",BY,Buchloe,48.0374,10.7409
D2388,0.2886751345948128,0.1154700538379251,1.5275252316519463,0.4553902589896814,0.2081665999466355,0,"(48.0419, 7.6322, 193)",BW,Ihringen,48.0419,7.6322
D2405,0.1527525231651947,0.3055050463303896,1.0,0.7665315738398852,0.0999999999999232,0,"(47.6078, 10.202, 960)",BY,Immenstadt-Reute,47.6078,10.202
D2415,0.2000000000000001,0.1154700538379256,1.5275252316519452,0.6767683074205139,0.2516611478423553,0,"(47.8177, 11.8678, 715)",BY,Irschenberg-Kasthub,47.8177,11.8678
D2416,0.3214550253664318,0.1732050807568876,1.5275252316519483,0.5658264157656179,0.2645751311065085,0,"(48.2022, 12.0382, 550)",BY,Isen-Westach,48.2022,12.0382
D2431,0.4582575694955839,0.3214550253664318,1.0,0.3857766927808129,0.3055050463303533,0,"(50.1338, 10.9318, 367)",BY,Itzgrund-Herreth,50.1338,10.9318
D2438,0.1527525231651947,0.1732050807568877,0.5773502691896278,0.3836734681776278,0.6027713773340918,0,"(53.4277, 13.8167, 40)",BB,Uckerland-Karlstein,53.4277,13.8167
D2444,8.267539090016784,6.231984987733491,18.590070599507392,0.4150710516035389,0.2516611478423063,0,"(50.9251, 11.583, 155)",TH,Jena (Sternwarte),50.9251,11.583
D2465,0.0577350269189626,0.1,0.5773502691896247,0.417591690632116,0.4509249752822648,0,"(53.5083, 9.7376, 1)",NI,Jork-Moorende,53.5083,9.7376
D2473,0.2309401076758502,0.3055050463303893,0.5773502691896247,0.3796073867630564,0.2081665999465855,0,"(50.9316, 6.3431, 76)",NW,Jülich (Kläranlage),50.9316,6.3431
D2480,8.178292750356935,6.071704984762258,20.1579109946708,0.4750359148894764,0.2516611478423553,0,"(50.0643, 8.993, 107)",BY,Kahl/Main,50.0643,8.993
D2497,7.361611553353315,5.775222216142504,17.730947909973278,0.5034448797791935,0.1527525231651642,1,"(50.5014, 6.5264, 505)",NW,Kall-Sistig,50.5014,6.5264
D2518,0.0577350269189625,0.2,1.0,0.3440034652822606,0.4509249752823331,0,"(54.0117, 13.4999, 34)",MV,Groß Kiesow-Schlagtow,54.0117,13.4999
D2531,0.1527525231651944,0.0999999999999999,0.5773502691896247,0.4352499850191528,0.4509249752822648,0,"(53.1724, 11.7491, 32)",BB,Karstädt/Prignitz,53.1724,11.7491
D2538,0.1732050807568876,0.2516611478423584,0.5773502691896247,0.4903833172174565,0.0999999999999232,0,"(49.3658, 11.6925, 424)",BY,"Kastl, Kreis Amberg-Sulzbach",49.3658,11.6925
D2541,0.3511884584284245,0.3511884584284245,0.0,0.5597677267239122,0.1527525231651642,0,"(50.5467, 11.0317, 452)",TH,Katzhütte,50.5467,11.0317
D2546,0.3605551275463989,0.1154700538379251,1.5275252316519452,0.5456686465453624,0.1527525231652169,0,"(48.5576, 7.88, 141)",BW,Kehl-Odelshofen,48.5576,7.88
D2556,0.0999999999999999,0.7637626158259733,5.291502622129181,0.4069044790453587,0.2886751345948046,0,"(49.8672, 11.881, 460)",BY,Kemnath,49.8672,11.881
D2562,0.2081665999466132,0.2081665999466132,0.0,0.4702420769261056,0.1527525231651983,0,"(51.334, 10.529, 428)",TH,Helbedündorf-Keula,51.334,10.529
D2575,8.140252964853927,6.298572555125414,19.142878715713607,0.4370642296029,0.05773502691891,0,"(49.1804, 9.98, 426)",BW,Kirchberg/Jagst-Herboldshausen,49.1804,9.98
D2577,0.4509249752822893,0.3511884584284245,0.5773502691896278,0.4996179078073969,0.3605551275464296,0,"(52.6007, 8.8522, 34)",NI,"Kirchdorf, Kreis Diepholz",52.6007,8.8522
D2578,7.128470995406365,5.971585697263578,15.090782645466232,0.4358144815319653,0.4163331998932051,1,"(53.9995, 11.4341, 12)",MV,Kirchdorf/Poel,53.9995,11.4341
D2595,0.1732050807568878,0.2516611478423584,0.5773502691896247,0.4179812836870663,0.2516611478423553,0,"(49.789, 7.4853, 181)",RP,Kirn,49.789,7.4853
D2597,8.191820180883932,6.121639702761875,20.048105237187595,0.44489865858779,9.223380000837702,0,"(50.2241, 10.0792, 282)",BY,"Kissingen, Bad",50.2241,10.0792
D2600,8.499413226198836,6.191496596152556,21.177836734550723,0.4247261441510029,0.2645751311064011,0,"(49.7363, 10.1781, 188)",BY,Kitzingen,49.7363,10.1781
D2618,7.903331602309576,6.135731949307825,19.072999642178672,0.59842581063657,0.2081665999465855,0,"(50.8458, 10.4803, 732)",TH,Kleiner Inselsberg,50.8458,10.4803
D2625,0.5033222956847168,0.4509249752822894,0.5773502691896247,0.4074052724082246,0.3055050463302913,0,"(52.739, 12.4984, 38)",BB,Kleßen,52.739,12.4984
D2627,8.496436160745795,6.298455615469662,20.095211814341337,0.385695312012568,0.2081665999465855,0,"(51.5555, 13.8845, 128)",BB,Klettwitz,51.5555,13.8845
D2629,7.464938788940244,5.635040893883639,19.252005848107267,0.5672842191748774,0.2516611478423553,0,"(51.7612, 6.0954, 46)",NW,Kleve,51.7612,6.0954
D2641,8.49497427178377,6.018064948692999,19.8757132128018,0.3572336543533084,0.1732050807568697,0,"(51.5185, 12.9065, 85)",SN,Klitzschen bei Torgau,51.5185,12.9065
D2662,0.0577350269189625,0.0999999999999999,0.5773502691896278,0.44191170456161,0.351188458428348,0,"(52.5233, 11.1289, 59)",ST,Köckte,52.5233,11.1289
D2673,0.5567764362830022,0.6,0.5773502691896278,0.3323478565684614,0.32145502536644,0,"(52.133, 11.7757, 52)",ST,Königsborn,52.133,11.7757
D2680,8.407857061666752,6.11939544984855,19.827571281324406,0.3950635169739431,0.3000000000000682,0,"(50.284, 10.4456, 288)",BY,"Königshofen, Bad",50.284,10.4456
D2689,0.0707106781186547,0.0707106781186548,0.0,0.3896074046902291,0.2121320343559723,0,"(53.2279, 9.6527, 40)",NI,Königsmoor,53.2279,9.6527
D2700,8.317212548917789,6.514191656134859,19.216093754022012,0.4005218647425398,0.0,0,"(48.8302, 11.4872, 416)",BY,Kösching,48.8302,11.4872
D2704,8.30168710190543,6.041369773708918,19.13061305230257,0.3703662018879895,0.070710678118711,0,"(51.7511, 12.0094, 76)",ST,Köthen (Anhalt),51.7511,12.0094
D2708,8.083580035190536,6.778620896102197,17.74472164487986,0.7562325197153521,0.141421356237221,0,"(47.6652, 11.0804, 740)",BY,"Kohlgrub, Bad (Rosshof)",47.6652,11.0804
D2709,1.0606601717798212,0.4242640687119285,4.242640687119285,0.446714819997966,0.1414213562373416,0,"(49.9164, 10.2363, 230)",BY,Kolitzheim,49.9164,10.2363
D2718,0.0707106781186547,0.0707106781186546,0.0,0.4202105772619791,0.0707106781186306,0,"(51.288, 8.7928, 458)",HE,Korbach-Rhena,51.288,8.7928
D2733,0.3535533905932739,0.3535533905932738,0.0,0.3832905218835848,0.1414213562373416,0,"(52.7277, 13.0121, 46)",BB,Kremmen-Groß Ziethen,52.7277,13.0121
D2734,0.0707106781186546,0.0707106781186546,0.0,0.4418976209685311,0.2828427124746431,0,"(54.3237, 9.0247, 2)",SH,Krempel,54.3237,9.0247
D2740,0.0707106781186546,0.0707106781186545,0.0,0.8454078119598952,0.2828427124745627,0,"(47.6105, 11.6462, 897)",BY,Kreuth-Glashütte,47.6105,11.6462
D2749,0.2828427124746189,0.0707106781186547,1.4142135623730951,0.4318536444335497,0.1414213562373416,0,"(54.0805, 11.7425, 52)",MV,Gersdorf,54.0805,11.7425
D2750,8.358883709122068,6.246584439230274,20.606783766750706,0.4602790517160088,0.1414213562373416,0,"(50.2523, 11.3209, 312)",BY,Kronach,50.2523,11.3209
D2763,0.0707106781186549,0.1414213562373096,1.4142135623730951,0.4560620896338583,0.2121320343560526,0,"(53.5039, 7.1217, 1)",NI,Norden-Leybuchtpolder,53.5039,7.1217
D2779,0.0707106781186545,0.0707106781186548,0.0,0.3986976748295875,0.2828427124746431,0,"(53.1486, 12.0851, 63)",BB,Kuhbier,53.1486,12.0851
D2787,0.1414213562373091,0.0,0.7071067811865476,0.4636527144467812,0.070710678118711,0,"(49.2428, 9.6786, 354)",BW,Kupferzell-Rechbach,49.2428,9.6786
D2792,0.1414213562373096,0.0,0.7071067811865476,0.5306383034620339,0.0,0,"(48.3737, 10.7604, 498)",BY,Diedorf/Schwaben-Biburg,48.3737,10.7604
D2810,0.0707106781186545,0.2121320343559642,0.7071067811865476,0.5617585617272435,0.141421356237221,0,"(51.9446, 8.7749, 150)",NW,"Lage, Kreis Lippe-Hörste",51.9446,8.7749
D2814,8.191401426201605,6.448717501524771,18.184111598180305,0.5701423632335231,0.070710678118711,0,"(48.5121, 9.7645, 685)",BW,Merklingen,48.5121,9.7645
D2822,0.0707106781186549,0.0707106781186548,0.0,0.4037366321759454,0.2121320343560526,0,"(53.6369, 9.0979, 25)",NI,Lamstedt,53.6369,9.0979
D2839,0.0707106781186547,0.2121320343559642,0.7071067811865476,0.5347101682561465,0.141421356237221,0,"(51.9262, 10.3461, 210)",NI,Langelsheim-Astfeld,51.9262,10.3461
D2844,0.0,0.0,0.0,0.4080328871676285,0.2121320343559321,0,"(53.6956, 8.6291, 13)",NI,"Langen-Holßel, Kreis Cuxhaven",53.6956,8.6291
D2850,0.0707106781186547,0.1414213562373094,0.7071067811865476,0.5064227283302487,0.070710678118711,0,"(48.1994, 9.3327, 777)",BW,Langenenslingen-Ittenhausen,48.1994,9.3327
D2860,0.4242640687119284,0.0707106781186547,2.1213203435596424,0.3438525056598994,0.0,0,"(49.5075, 10.7884, 370)",BY,Langenzenn,49.5075,10.7884
D2878,8.139285574699583,5.9287244062626,18.263119935411613,0.2786544551947555,0.070710678118711,0,"(51.391, 11.8788, 118)",ST,"Lauchstädt, Bad",51.391,11.8788
D2880,0.2121320343559642,0.1414213562373095,0.7071067811865476,0.5383439022472619,0.070710678118711,0,"(49.5522, 9.6345, 324)",BW,Lauda-Königshofen-Heckfeld,49.5522,9.6345
D2890,0.4949747468305833,0.2121320343559643,2.1213203435596424,0.406256570106302,0.1414213562373416,0,"(51.5957, 10.463, 305)",NI,"Lauterberg,Bad-Bartolfelde",51.5957,10.463
D2900,0.0707106781186547,0.0707106781186547,0.0,0.4671774903803209,0.1414213562373014,0,"(49.709, 8.6908, 208)",HE,Lautertal/Odenwald-Reichenbach,49.709,8.6908
D2928,8.242816538820623,6.104480189388782,18.852461063457906,0.4062848293496555,9.347736151268055,0,"(51.3151, 12.4462, 138)",SN,Leipzig-Holzhausen,51.3151,12.4462
D2932,8.282745471346884,5.977792421607524,18.81652310962533,0.3470566860734007,9.39486120480622,1,"(51.4348, 12.2396, 131)",SN,Leipzig/Halle,51.4348,12.2396
D2947,7.763842924552484,5.921714510226225,19.516673495462165,0.5327091381269542,0.0707106781186306,0,"(51.1333, 8.0348, 286)",NW,Lennestadt-Theten,51.1333,8.0348
D2951,8.075293470568704,5.929308807777945,19.851129330374928,0.3910730810738867,0.3535533905932738,0,"(53.1007, 11.4864, 20)",BB,Lenzen / Elbe,53.1007,11.4864
D2953,8.026997637866858,6.333932215604454,18.14159209922981,0.6985914791075741,0.141421356237221,0,"(47.8597, 8.2308, 852)",BW,Lenzkirch-Ruhbühl,47.8597,8.2308
D2958,0.4242640687119285,0.1414213562373096,1.4142135623730951,0.4615699000157487,0.2828427124745627,0,"(51.0266, 14.9356, 213)",SN,Ostritz,51.0266,14.9356
D2968,7.524905195592789,5.706977241978266,18.9962978390639,0.3995170954235927,0.0707106781186306,0,"(50.9894, 6.9777, 43)",NW,Köln-Stammheim,50.9894,6.9777
D2988,0.4242640687119285,0.0,2.8284271247461903,0.4491402927215343,0.070710678118711,0,"(51.4881, 9.25, 162)",HE,Liebenau-Haueda,51.4881,9.25
D2992,0.2828427124746192,0.2121320343559641,0.7071067811865476,0.4792466061610006,0.2828427124745627,0,"(50.5276, 11.6604, 495)",TH,Remptendorf,50.5276,11.6604
D2997,0.6363961030678927,0.565685424949238,0.7071067811865476,0.3810907456104364,0.0707106781186306,0,"(51.9861, 14.3044, 47)",BB,Lieberose,51.9861,14.3044
D2999,0.0707106781186545,0.2121320343559643,0.7071067811865476,0.4339775892624463,0.1414213562373416,0,"(52.1211, 7.8699, 55)",NW,Lienen-Kattenvenne,52.1211,7.8699
D3024,0.0,0.0,0.0,0.3988347063849969,0.2121320343559723,0,"(50.094, 7.5675, 485)",RP,Lingerhahn,50.094,7.5675
D3031,7.600743528168311,5.738142994791788,17.8713273260685,0.4531992461664417,0.1414213562373416,0,"(51.6336, 8.3945, 92)",NW,Lippstadt-Bökenförde,51.6336,8.3945
D3034,8.233514960158153,6.338465806408836,18.66308825070832,0.4458047737263041,0.2828427124745627,0,"(50.4505, 11.635, 500)",TH,"Lobenstein, Bad",50.4505,11.635
D3042,7.982812618510491,6.021427864060158,20.428610028528524,0.4682752430245475,0.1414213562373014,0,"(50.5617, 8.2386, 230)",HE,Löhnberg-Obershausen,50.5617,8.2386
D3080,0.4949747468305829,0.4949747468305829,0.0,0.4327954328804301,0.2121320343559723,0,"(50.5131, 11.3665, 520)",BY,Ludwigsstadt-Lauenstein,50.5131,11.3665
D3081,0.0707106781186546,0.0707106781186548,0.0,0.4509843902559907,0.1414213562373014,0,"(52.3452, 8.6477, 65)",NW,Espelkamp-Isenstedt,52.3452,8.6477
D3083,8.497000514089878,6.341988028211621,19.47531301787888,0.3575811714242348,0.0,0,"(51.9267, 13.8797, 57)",BB,Lübben-Blumenfelde,51.9267,13.8797
D3094,0.1414213562373096,0.0,0.7071067811865476,0.4298271646857281,0.070710678118711,0,"(51.3122, 14.0499, 166)",SN,Schönteichen-Cunnersdorf,51.3122,14.0499
D3121,0.0,0.1414213562373094,0.7071067811865476,0.4547179614955568,0.0707106781185904,0,"(49.9114, 12.5276, 676)",BY,Mähring,49.9114,12.5276
D3136,0.6363961030678927,0.636396103067893,0.0,0.3775996092786435,0.1414213562373416,0,"(50.1294, 8.8209, 102)",HE,Mühlheim/Main,50.1294,8.8209
D3137,8.0355416904099,5.813355598285805,19.703109650190783,0.3713782861004189,0.1414213562373416,0,"(49.9656, 8.2139, 195)",RP,Mainz / Lerchenberg ,49.9656,8.2139
D3146,0.0707106781186548,0.2121320343559641,0.7071067811865476,0.384669448719195,0.2828427124746833,0,"(53.2141, 11.3686, 31)",MV,Malk Göhren,53.2141,11.3686
D3147,8.528423291804714,6.543151790207189,20.217920119796787,0.4654755227908507,0.2121320343559723,0,"(48.7726, 12.2177, 418)",BY,Mallersdorf-Pfaffenberg/Niederbayern,48.7726,12.2177
D3153,0.5656854249492381,0.3535533905932738,1.4142135623730951,0.515672708025116,0.070710678118711,0,"(48.6189, 12.6233, 449)",BY,Mamming-Schneiderberg,48.6189,12.6233
D3155,7.711211059094639,5.724112119209176,19.15340660557371,0.4995728440953657,0.0,0,"(50.1015, 6.8009, 413)",RP,Manderscheid-Sonnenhof,50.1015,6.8009
D3164,8.108390311379457,5.918179498732904,20.16888310286458,0.3928724480600048,0.070710678118711,0,"(50.8492, 8.7746, 187)",HE,"Cölbe, Kr. Marburg-Biedenkopf",50.8492,8.7746
D3175,0.282842712474619,0.2828427124746189,0.0,0.4237330437276063,0.2828427124745627,0,"(50.5219, 12.8282, 504)",SN,Raschau,50.5219,12.8282
D3179,0.2121320343559642,0.0,1.4142135623730951,0.3720581338623451,0.0,0,"(49.666, 10.3851, 317)",BY,Markt Bibart,49.666,10.3851
D3192,0.1414213562373095,0.0,0.7071067811865476,0.8464166542455327,0.2121320343559723,0,"(47.7046, 13.0372, 501)",BY,Marktschellenberg,47.7046,13.0372
D3204,8.111549730098828,6.257236542093783,18.08102395539726,0.5934327525247394,0.1414213562373014,0,"(50.7334, 10.8815, 427)",TH,Martinroda,50.7334,10.8815
D3205,0.2121320343559642,0.1414213562373095,0.7071067811865476,0.4254637351205972,0.1414213562373416,0,"(52.6579, 13.179, 33)",BB,Marwitz (Wasserwerk),52.6579,13.179
D3207,0.1414213562373095,0.1414213562373094,0.0,0.4355992929010402,0.2121320343559321,0,"(50.1797, 10.272, 326)",BY,Maßbach,50.1797,10.272
D3215,0.1414213562373095,0.3535533905932735,1.4142135623730951,0.4701986392784434,0.070710678118711,0,"(51.1683, 8.7125, 375)",NW,Medebach-Berge,51.1683,8.7125
D3217,0.5656854249492379,0.4242640687119285,0.7071067811865476,0.4793803700557487,0.2121320343559321,0,"(54.8373, 9.1481, 22)",SH,Weesby,54.8373,9.1481
D3226,8.199388845195198,6.070251557470914,18.870735960804165,0.3902701734566103,0.0707106781186306,0,"(51.7259, 11.5109, 107)",ST,Aschersleben-Mehringen,51.7259,11.5109
D3234,8.454455128060017,6.394725541880298,18.6975763500778,0.4225607707307593,0.1414213562373416,0,"(51.1294, 13.4327, 157)",SN,Garsebach bei Meißen,51.1294,13.4327
D3238,0.1414213562373094,0.1414213562373095,0.0,0.3417084715996599,0.2121320343559321,0,"(53.9497, 13.9742, 2)",MV,Dewichow,53.9497,13.9742
D3247,0.1414213562373095,0.0,0.7071067811865476,0.5318844658025101,0.0,0,"(48.0557, 9.3185, 567)",BW,Mengen-Ennetach,48.0557,9.3185
D3248,0.5656854249492381,0.6363961030678925,0.7071067811865476,0.4666949672924838,0.2121320343560526,0,"(50.3904, 11.1324, 516)",TH,Frankenblick-Mengersgereuth-Hämmern,50.3904,11.1324
